{"type":"FeatureCollection","bbox":[144.3454224,-38.43183568,145.8232715,-37.4707],"crs":{"type":"name","properties":{"name":"EPSG:4283"}},"features":[{"type":"Feature","geometry":{"type":"Point","coordinates":[144.9649,-37.811154]},"properties":{"region":"Melbourne CBD, Docklands & Southbank Precincts","attached_entitlements":null,"issue_date":null,"type":"Hotel","postcode":3000,"liq_licence_type":null,"operator":null,"category":"Non-Gaming Hotel","suburb":"MELBOURNE","address":"NO.1. QV SQUARE, CORNER SWANSTON & LONSDALE STREET","name":"THREE DEGREES","liq_licencee":null,"longitude":144.9649,"latitude":-37.811154,"objectid":794,"district":"Metro","lga":"City of Melbourne"},"id":"vcglr_keno_wagering_venues_20190308.fid-5c91773e_1795bb42952_262"},{"type":"Feature","geometry":{"type":"Point","coordinates":[145.0675049,-37.7558]},"properties":{"region":"Banyule (Capped Region)","attached_entitlements":65,"issue_date":"2002-12-18T11:00:00.000+0000","type":"Hotel","postcode":3084,"liq_licence_type":"GE","operator":"OBISAX PTY LTD","category":"Hotel-General","suburb":"HEIDELBERG","address":"92 BURGUNDY STREET","name":"SIR HENRY BARKLY HOTEL","liq_licencee":"OBISAX PTY LTD","longitude":145.0675049,"latitude":-37.7558,"objectid":687,"district":"Metro","lga":"City of Banyule"},"id":"vcglr_keno_wagering_venues_20190308.fid-5c91773e_1795bb42952_263"},{"type":"Feature","geometry":{"type":"Point","coordinates":[145.119024,-38.14542]},"properties":{"region":"Frankston City (Municipal Limit)","attached_entitlements":null,"issue_date":null,"type":"Hotel","postcode":3199,"liq_licence_type":null,"operator":null,"category":"Non-Gaming Hotel","suburb":"FRANKSTON","address":"510 NEPEAN HWY","name":"DAVEYS HOTEL","liq_licencee":null,"longitude":145.119024,"latitude":-38.14542,"objectid":215,"district":"Metro","lga":"City of Frankston"},"id":"vcglr_keno_wagering_venues_20190308.fid-5c91773e_1795bb42952_264"},{"type":"Feature","geometry":{"type":"Point","coordinates":[145.3620023,-37.78523937]},"properties":{"region":"Yarra Ranges Shire (Capped Region 20)","attached_entitlements":null,"issue_date":null,"type":"Hotel","postcode":3796,"liq_licence_type":null,"operator":null,"category":"Non-Gaming Hotel","suburb":"MT EVELYN","address":"CNR YORK & SWANSEA ROADS","name":"YORK ON LILYDALE TAVERNER TAB","liq_licencee":null,"longitude":145.3620023,"latitude":-37.78523937,"objectid":879,"district":"Metro","lga":"Shire of Yarra Ranges"},"id":"vcglr_keno_wagering_venues_20190308.fid-5c91773e_1795bb42952_265"},{"type":"Feature","geometry":{"type":"Point","coordinates":[145.8232715,-38.43183568]},"properties":{"region":"South Gippsland Shire","attached_entitlements":null,"issue_date":null,"type":"Hotel","postcode":3950,"liq_licence_type":null,"operator":null,"category":"Non-Gaming Hotel","suburb":"KORUMBURRA","address":"81 COMMERCIAL STREET","name":"KORUMBURRA HOTEL TAB","liq_licencee":null,"longitude":145.8232715,"latitude":-38.43183568,"objectid":401,"district":"Country","lga":"Shire of South Gippsland"},"id":"vcglr_keno_wagering_venues_20190308.fid-5c91773e_1795bb42952_266"},{"type":"Feature","geometry":{"type":"Point","coordinates":[145.0879974,-38.01]},"properties":{"region":"Kingston City","attached_entitlements":50,"issue_date":"2002-12-18T11:00:00.000+0000","type":"Hotel","postcode":3195,"liq_licence_type":"GE","operator":"DOYLE'S BRIDGE HOTEL PTY LTD","category":"Hotel-General","suburb":"MORDIALLOC","address":"1 NEPEAN HIGHWAY","name":"THE BRIDGE HOTEL","liq_licencee":"DOYLE'S BRIDGE HOTEL PTY LTD","longitude":145.0879974,"latitude":-38.01,"objectid":750,"district":"Metro","lga":"City of Kingston"},"id":"vcglr_keno_wagering_venues_20190308.fid-5c91773e_1795bb42952_267"},{"type":"Feature","geometry":{"type":"Point","coordinates":[144.3454224,-38.1570141]},"properties":{"region":"Greater Geelong and Queenscliffe (Capped Region)","attached_entitlements":null,"issue_date":null,"type":"Hotel","postcode":3220,"liq_licence_type":null,"operator":null,"category":"Non-Gaming Hotel","suburb":"NEWTOWN","address":"336 PAKINGTON ST","name":"CREMORNE HOTEL","liq_licencee":null,"longitude":144.3454224,"latitude":-38.1570141,"objectid":195,"district":"Country","lga":"City of Greater Geelong"},"id":"vcglr_keno_wagering_venues_20190308.fid-5c91773e_1795bb42952_268"},{"type":"Feature","geometry":{"type":"Point","coordinates":[144.9011993,-37.7995]},"properties":{"region":"Maribyrnong (Capped Region)","attached_entitlements":30,"issue_date":"2000-02-29T11:00:00.000+0000","type":"Club","postcode":3011,"liq_licence_type":null,"operator":"FOOTSCRAY FOOTBALL CLUB LIMITED","category":"Club-Full","suburb":"FOOTSCRAY","address":"17 LEEDS STREET","name":"CLUB LEEDS","liq_licencee":null,"longitude":144.9011993,"latitude":-37.7995,"objectid":152,"district":"Metro","lga":"City of Maribyrnong"},"id":"vcglr_keno_wagering_venues_20190308.fid-5c91773e_1795bb42952_269"},{"type":"Feature","geometry":{"type":"Point","coordinates":[145.283493,-38.0975]},"properties":{"region":"Casey (Capped Region)","attached_entitlements":52,"issue_date":"1999-10-10T10:00:00.000+0000","type":"Hotel","postcode":3977,"liq_licence_type":"GE","operator":"THE CRANBOURNE HOTEL PTY LTD","category":"Hotel-General","suburb":"CRANBOURNE","address":"CNR SOUTH GIPPSLAND HIGHWAY & CAMMS ROAD","name":"THE SETTLEMENT AT CRANBOURNE","liq_licencee":"THE CRANBOURNE HOTEL PTY LTD","longitude":145.283493,"latitude":-38.0975,"objectid":782,"district":"Metro","lga":"City of Casey"},"id":"vcglr_keno_wagering_venues_20190308.fid-5c91773e_1795bb42952_26a"},{"type":"Feature","geometry":{"type":"Point","coordinates":[145.0196075,-37.6381]},"properties":{"region":"Whittlesea (Capped Region)","attached_entitlements":75,"issue_date":"2002-12-10T11:00:00.000+0000","type":"Club","postcode":3076,"liq_licence_type":"CL","operator":"CASA D'ABRUZZO CLUB","category":"Club-Full","suburb":"EPPING","address":"55 O'HERNS ROAD","name":"CASA D'ABRUZZO CLUB","liq_licencee":"CASA D'ABRUZZO CLUB","longitude":145.0196075,"latitude":-37.6381,"objectid":118,"district":"Metro","lga":"City of Whittlesea"},"id":"vcglr_keno_wagering_venues_20190308.fid-5c91773e_1795bb42952_26b"},{"type":"Feature","geometry":{"type":"Point","coordinates":[144.94747,-37.81645]},"properties":{"region":"Melbourne CBD, Docklands & Southbank Precincts","attached_entitlements":null,"issue_date":null,"type":"TAB Agency","postcode":3008,"liq_licence_type":null,"operator":null,"category":"Non-Gaming TAB Agency","suburb":"MELBOURNE","address":"ETIHAD STADIUM - GATE 3 - LEVEL 1- ISLE","name":"ETIHAD STADIUM - GATE 3 - LEVEL 1- ISLE","liq_licencee":null,"longitude":144.94747,"latitude":-37.81645,"objectid":258,"district":"Metro","lga":"City of Melbourne"},"id":"vcglr_keno_wagering_venues_20190308.fid-5c91773e_1795bb42952_26c"},{"type":"Feature","geometry":{"type":"Point","coordinates":[144.98254,-37.81915]},"properties":{"region":"Melbourne City (Municipal Limit)","attached_entitlements":null,"issue_date":null,"type":"TAB Agency","postcode":3000,"liq_licence_type":null,"operator":null,"category":"Non-Gaming TAB Agency","suburb":"MELBOURNE","address":"MCG - LEVEL B1 - BAY 7","name":"MCG - LEVEL B1 - BAY 7","liq_licencee":null,"longitude":144.98254,"latitude":-37.81915,"objectid":461,"district":"Metro","lga":"City of Melbourne"},"id":"vcglr_keno_wagering_venues_20190308.fid-5c91773e_1795bb42952_26d"},{"type":"Feature","geometry":{"type":"Point","coordinates":[145.0812988,-37.7775]},"properties":{"region":"Manningham City","attached_entitlements":90,"issue_date":"2001-02-20T11:00:00.000+0000","type":"Club","postcode":3105,"liq_licence_type":"CL","operator":"CARLTON FOOTBALL CLUB LIMITED","category":"Club-Full","suburb":"BULLEEN","address":"1 THOMPSONS ROAD","name":"MANNINGHAM CLUB","liq_licencee":"CARLTON FOOTBALL CLUB LIMITED","longitude":145.0812988,"latitude":-37.7775,"objectid":447,"district":"Metro","lga":"City of Manningham"},"id":"vcglr_keno_wagering_venues_20190308.fid-5c91773e_1795bb42952_26e"},{"type":"Feature","geometry":{"type":"Point","coordinates":[145.0686951,-37.7581]},"properties":{"region":"Banyule (Capped Region)","attached_entitlements":93,"issue_date":"2002-05-13T10:00:00.000+0000","type":"Hotel","postcode":3084,"liq_licence_type":"GE","operator":"OLD ENGLAND HOTEL PTY LTD","category":"Hotel-General","suburb":"HEIDELBERG","address":"459 LOWER HEIDELBERG ROAD","name":"OLD ENGLAND HOTEL","liq_licencee":"OLD ENGLAND HOTEL PTY LTD","longitude":145.0686951,"latitude":-37.7581,"objectid":545,"district":"Metro","lga":"City of Banyule"},"id":"vcglr_keno_wagering_venues_20190308.fid-5c91773e_1795bb42952_26f"},{"type":"Feature","geometry":{"type":"Point","coordinates":[144.9877014,-37.9263]},"properties":{"region":"Bayside City","attached_entitlements":48,"issue_date":"2003-03-19T11:00:00.000+0000","type":"Hotel","postcode":3186,"liq_licence_type":"GE","operator":"AUSTRALIAN LEISURE AND HOSPITALITY GROUP PTY LTD","category":"Hotel-General","suburb":"BRIGHTON","address":"4 THE ESPLANADE","name":"MILANO'S HOTEL","liq_licencee":"ROYAL TERMINUS BRIGHTON BEACH P\/L","longitude":144.9877014,"latitude":-37.9263,"objectid":476,"district":"Metro","lga":"City of Bayside"},"id":"vcglr_keno_wagering_venues_20190308.fid-5c91773e_1795bb42952_270"},{"type":"Feature","geometry":{"type":"Point","coordinates":[145.6253052,-37.7766]},"properties":{"region":"Yarra Ranges Shire","attached_entitlements":30,"issue_date":"2003-05-27T10:00:00.000+0000","type":"Club","postcode":3797,"liq_licence_type":"CL","operator":"UPPER YARRA RSL SUB-BRANCH INC","category":"Club-Full","suburb":"YARRA JUNCTION","address":"119 SETTLEMENT ROAD","name":"UPPER YARRA RSL","liq_licencee":"UPPER YARRA RSL SUB-BRANCH INC","longitude":145.6253052,"latitude":-37.7766,"objectid":808,"district":"Metro","lga":"Shire of Yarra Ranges"},"id":"vcglr_keno_wagering_venues_20190308.fid-5c91773e_1795bb42952_271"},{"type":"Feature","geometry":{"type":"Point","coordinates":[144.94746,-37.81644]},"properties":{"region":"Melbourne CBD, Docklands & Southbank Precincts","attached_entitlements":null,"issue_date":null,"type":"TAB Agency","postcode":3008,"liq_licence_type":null,"operator":null,"category":"Non-Gaming TAB Agency","suburb":"MELBOURNE","address":"ETIHAD STADIUM - LEVEL 2 - MEDALLION CLUB ENTRY","name":"ETIHAD STADIUM - LEVEL 2 - MEDALLION CLUB ENTRY","liq_licencee":null,"longitude":144.94746,"latitude":-37.81644,"objectid":259,"district":"Metro","lga":"City of Melbourne"},"id":"vcglr_keno_wagering_venues_20190308.fid-5c91773e_1795bb42952_272"},{"type":"Feature","geometry":{"type":"Point","coordinates":[145.183306,-37.90612059]},"properties":{"region":"Monash City (Municipal Limit)","attached_entitlements":null,"issue_date":null,"type":"Hotel","postcode":3150,"liq_licence_type":null,"operator":null,"category":"Non-Gaming Hotel","suburb":"WHEELERS HILL","address":"CNR JELLS AND FERNTREE GULLY ROAD","name":"WHEELERS HILL HOTEL TAB","liq_licencee":null,"longitude":145.183306,"latitude":-37.90612059,"objectid":860,"district":"Metro","lga":"City of Monash"},"id":"vcglr_keno_wagering_venues_20190308.fid-5c91773e_1795bb42952_273"},{"type":"Feature","geometry":{"type":"Point","coordinates":[145.0419006,-37.7694]},"properties":{"region":"Banyule (Capped Region)","attached_entitlements":85,"issue_date":"1999-12-20T11:00:00.000+0000","type":"Hotel","postcode":3079,"liq_licence_type":"GE","operator":"BLACK RHINO (IVANHOE) PTY LTD","category":"Hotel-General","suburb":"IVANHOE","address":"120 UPPER HEIDELBERG ROAD","name":"IVANHOE HOTEL","liq_licencee":"AVZUR HOTELS PTY LTD","longitude":145.0419006,"latitude":-37.7694,"objectid":370,"district":"Metro","lga":"City of Banyule"},"id":"vcglr_keno_wagering_venues_20190308.fid-5c91773e_1795bb42952_274"},{"type":"Feature","geometry":{"type":"Point","coordinates":[144.9848,-37.8207]},"properties":{"region":"Melbourne City (Municipal Limit)","attached_entitlements":null,"issue_date":null,"type":"TAB Agency","postcode":3002,"liq_licence_type":null,"operator":null,"category":"Non-Gaming TAB Agency","suburb":"MELBOURNE","address":"MCG","name":"MCG - LEVEL B1 BAY 27","liq_licencee":null,"longitude":144.9848,"latitude":-37.8207,"objectid":462,"district":"Metro","lga":"City of Melbourne"},"id":"vcglr_keno_wagering_venues_20190308.fid-5c91773e_1795bb42952_275"},{"type":"Feature","geometry":{"type":"Point","coordinates":[144.97365,-37.4707]},"properties":{"region":"Mitchell Shire","attached_entitlements":null,"issue_date":null,"type":"Hotel","postcode":3753,"liq_licence_type":null,"operator":null,"category":"Non-Gaming Hotel","suburb":"BEVERIDGE","address":"9 OLD HUME HIGHWAY","name":"BEVERIDGE TAVERN","liq_licencee":null,"longitude":144.97365,"latitude":-37.4707,"objectid":70,"district":"Country","lga":"Shire of Mitchell"},"id":"vcglr_keno_wagering_venues_20190308.fid-5c91773e_1795bb42952_276"},{"type":"Feature","geometry":{"type":"Point","coordinates":[144.8827972,-37.7881]},"properties":{"region":"Maribyrnong (Capped Region)","attached_entitlements":76,"issue_date":"2003-12-21T11:00:00.000+0000","type":"Club","postcode":3012,"liq_licence_type":"CL","operator":"YARRAVILLE CLUB CRICKET CLUB INC","category":"Club-Full","suburb":"MAIDSTONE","address":"CORNER BALLARAT & ROSAMOND ROADS","name":"YARRAVILLE CLUB CRICKET CLUB","liq_licencee":"YARRAVILLE CLUB CRICKET CLUB INC","longitude":144.8827972,"latitude":-37.7881,"objectid":874,"district":"Metro","lga":"City of Maribyrnong"},"id":"vcglr_keno_wagering_venues_20190308.fid-5c91773e_1795bb42952_277"},{"type":"Feature","geometry":{"type":"Point","coordinates":[145.3647003,-37.7523]},"properties":{"region":"Yarra Ranges Shire","attached_entitlements":80,"issue_date":"2003-08-26T10:00:00.000+0000","type":"Club","postcode":3140,"liq_licence_type":"CL","operator":"VERMONT FOOTBALL CLUB INC","category":"Club-Full","suburb":"LILYDALE","address":"471 MAROONDAH HIGHWAY","name":"THE INTERNATIONAL","liq_licencee":"COLLINGWOOD FOOTBALL CLUB LTD","longitude":145.3647003,"latitude":-37.7523,"objectid":765,"district":"Metro","lga":"Shire of Yarra Ranges"},"id":"vcglr_keno_wagering_venues_20190308.fid-5c91773e_1795bb42952_278"},{"type":"Feature","geometry":{"type":"Point","coordinates":[145.0778961,-37.7724]},"properties":{"region":"Manningham City","attached_entitlements":90,"issue_date":"2002-05-27T10:00:00.000+0000","type":"Club","postcode":3105,"liq_licence_type":"CL","operator":"VENETO CLUB","category":"Club-Full","suburb":"BULLEEN","address":"191 BULLEEN ROAD","name":"VENETO CLUB","liq_licencee":"VENETO CLUB","longitude":145.0778961,"latitude":-37.7724,"objectid":811,"district":"Metro","lga":"City of Manningham"},"id":"vcglr_keno_wagering_venues_20190308.fid-5c91773e_1795bb42952_279"},{"type":"Feature","geometry":{"type":"Point","coordinates":[144.98254,-37.81915]},"properties":{"region":"Melbourne City (Municipal Limit)","attached_entitlements":null,"issue_date":null,"type":"TAB Agency","postcode":3000,"liq_licence_type":null,"operator":null,"category":"Non-Gaming TAB Agency","suburb":"MELBOURNE","address":"MCG - LEVEL 4 BAY Q40","name":"MCG - LEVEL 4 BAY Q40","liq_licencee":null,"longitude":144.98254,"latitude":-37.81915,"objectid":459,"district":"Metro","lga":"City of Melbourne"},"id":"vcglr_keno_wagering_venues_20190308.fid-5c91773e_1795bb42952_27a"},{"type":"Feature","geometry":{"type":"Point","coordinates":[144.9909973,-37.8687]},"properties":{"region":"Port Phillip City","attached_entitlements":45,"issue_date":"2002-01-21T11:00:00.000+0000","type":"Hotel","postcode":3183,"liq_licence_type":"GE","operator":"AUSTRALIAN LEISURE AND HOSPITALITY GROUP PTY LTD","category":"Hotel-General","suburb":"BALACLAVA","address":"123 CARLISLE STREET","name":"BALACLAVA HOTEL","liq_licencee":"BALACLALVA HOTEL (BALACLALVA) PTY LTD","longitude":144.9909973,"latitude":-37.8687,"objectid":41,"district":"Metro","lga":"City of Port Phillip"},"id":"vcglr_keno_wagering_venues_20190308.fid-5c91773e_1795bb42952_27b"},{"type":"Feature","geometry":{"type":"Point","coordinates":[144.98254,-37.81915]},"properties":{"region":"Melbourne City (Municipal Limit)","attached_entitlements":null,"issue_date":null,"type":"TAB Agency","postcode":3000,"liq_licence_type":null,"operator":null,"category":"Non-Gaming TAB Agency","suburb":"MELBOURNE","address":"MCG - LEVEL B1 - BAY 34","name":"MCG - LEVEL B1 - BAY 34","liq_licencee":null,"longitude":144.98254,"latitude":-37.81915,"objectid":460,"district":"Metro","lga":"City of Melbourne"},"id":"vcglr_keno_wagering_venues_20190308.fid-5c91773e_1795bb42952_27c"},{"type":"Feature","geometry":{"type":"Point","coordinates":[144.3538055,-38.1574]},"properties":{"region":"Greater Geelong and Queenscliffe (Capped Region)","attached_entitlements":17,"issue_date":"2002-06-24T10:00:00.000+0000","type":"Club","postcode":3220,"liq_licence_type":"CL","operator":"GEELONG FOOTBALL CLUB LIMITED","category":"Club-Full","suburb":"GEELONG","address":"LATROBE TERRACE, KARDINIA PARK","name":"GEELONG FOOTBALL CLUB","liq_licencee":"GEELONG FOOTBALL CLUB LTD","longitude":144.3538055,"latitude":-38.1574,"objectid":291,"district":"Country","lga":"City of Greater Geelong"},"id":"vcglr_keno_wagering_venues_20190308.fid-5c91773e_1795bb42952_27d"},{"type":"Feature","geometry":{"type":"Point","coordinates":[144.8880005,-37.7123]},"properties":{"region":"Moonee Valley (Capped Region)","attached_entitlements":96,"issue_date":"2002-07-31T10:00:00.000+0000","type":"Hotel","postcode":3042,"liq_licence_type":"GE","operator":"AUSTRALIAN LEISURE AND HOSPITALITY GROUP PTY LTD","category":"Hotel-General","suburb":"AIRPORT WEST","address":"113 MATHEWS AVENUE","name":"SKYWAYS TAVERNER","liq_licencee":"NEW THEME PTY LTD","longitude":144.8880005,"latitude":-37.7123,"objectid":689,"district":"Metro","lga":"City of Moonee Valley"},"id":"vcglr_keno_wagering_venues_20190308.fid-5c91773e_1795bb42952_27e"},{"type":"Feature","geometry":{"type":"Point","coordinates":[145.0279999,-37.7575]},"properties":{"region":"Darebin (Capped Region)","attached_entitlements":30,"issue_date":"2003-05-20T10:00:00.000+0000","type":"Club","postcode":3071,"liq_licence_type":"CL","operator":"CLUB FOGOLAR FURLAN MELBOURNE","category":"Club-Full","suburb":"THORNBURY","address":"1 MATISI STREET","name":"FURLAN CLUB","liq_licencee":"CLUB FOGOLAR FURLAN MELBOURNE","longitude":145.0279999,"latitude":-37.7575,"objectid":285,"district":"Metro","lga":"City of Darebin"},"id":"vcglr_keno_wagering_venues_20190308.fid-5c91773e_1795bb42952_27f"},{"type":"Feature","geometry":{"type":"Point","coordinates":[145.0494995,-37.7521]},"properties":{"region":"Banyule (Capped Region)","attached_entitlements":31,"issue_date":"2003-12-16T11:00:00.000+0000","type":"Club","postcode":3081,"liq_licence_type":"CL","operator":"WEST HEIDELBERG RSL SUB-BRANCH INC","category":"Club-Full","suburb":"WEST HEIDELBERG","address":"180 BELL STREET","name":"WEST HEIDELBERG RSL","liq_licencee":"WEST HEIDELBERG RSL SUB-BRANCH INC","longitude":145.0494995,"latitude":-37.7521,"objectid":849,"district":"Metro","lga":"City of Banyule"},"id":"vcglr_keno_wagering_venues_20190308.fid-5c91773e_1795bb42952_280"},{"type":"Feature","geometry":{"type":"Point","coordinates":[144.7225037,-37.572]},"properties":{"region":"Hume (Capped Region)","attached_entitlements":78,"issue_date":"2002-09-29T10:00:00.000+0000","type":"Club","postcode":3429,"liq_licence_type":"CL","operator":"SUNBURY BOWLING CLUB INC","category":"Club-Full","suburb":"SUNBURY","address":"49 RIDDELL ROAD","name":"SUNBURY BOWLING CLUB","liq_licencee":"SUNBURY BOWLING CLUB INC","longitude":144.7225037,"latitude":-37.572,"objectid":723,"district":"Metro","lga":"City of Hume"},"id":"vcglr_keno_wagering_venues_20190308.fid-5c91773e_1795bb42952_281"},{"type":"Feature","geometry":{"type":"Point","coordinates":[144.656601,-38.2719]},"properties":{"region":"Greater Geelong and Queenscliffe (Capped Region)","attached_entitlements":30,"issue_date":"1999-10-18T10:00:00.000+0000","type":"Club","postcode":3225,"liq_licence_type":"CL","operator":"QUEENSCLIFF BOWLING TENNIS AND CROQUET ASSOC. INC","category":"Club-Full","suburb":"QUEENSCLIFF","address":"118 HESSE STREET","name":"QUEENSCLIFF BOWLING TENNIS AND CROQUET CLUB","liq_licencee":"QUEENSCLIFF BOWLING TENNIS AND CROQUET CLUB","longitude":144.656601,"latitude":-38.2719,"objectid":600,"district":"Country","lga":"Borough of Queenscliffe"},"id":"vcglr_keno_wagering_venues_20190308.fid-5c91773e_1795bb42952_282"},{"type":"Feature","geometry":{"type":"Point","coordinates":[144.3616028,-38.1462]},"properties":{"region":"Greater Geelong and Queenscliffe (Capped Region)","attached_entitlements":28,"issue_date":"2000-04-04T10:00:00.000+0000","type":"Hotel","postcode":3220,"liq_licence_type":"GE","operator":"WOOL EXCHANGE HOTEL PTY LTD","category":"Hotel-General","suburb":"GEELONG","address":"59 MOORABOOL STREET","name":"PHOENIX HOTEL","liq_licencee":"WOOL EXCHANGE HOTEL","longitude":144.3616028,"latitude":-38.1462,"objectid":572,"district":"Country","lga":"City of Greater Geelong"},"id":"vcglr_keno_wagering_venues_20190308.fid-5c91773e_1795bb42952_283"},{"type":"Feature","geometry":{"type":"Point","coordinates":[145.0218048,-37.6668]},"properties":{"region":"Whittlesea (Capped Region)","attached_entitlements":36,"issue_date":"2001-06-18T10:00:00.000+0000","type":"Club","postcode":3075,"liq_licence_type":"CL","operator":"LALOR BOWLING CLUB INC","category":"Club-Full","suburb":"LALOR","address":"CNR SYDNEY CRESCENT & GORDON STREET","name":"LALOR BOWLING CLUB","liq_licencee":"LALOR BOWLING CLUB INC","longitude":145.0218048,"latitude":-37.6668,"objectid":412,"district":"Metro","lga":"City of Whittlesea"},"id":"vcglr_keno_wagering_venues_20190308.fid-5c91773e_1795bb42952_284"},{"type":"Feature","geometry":{"type":"Point","coordinates":[144.9602966,-37.7759]},"properties":{"region":"Moreland (Capped Region)","attached_entitlements":85,"issue_date":"2003-09-09T10:00:00.000+0000","type":"Club","postcode":3056,"liq_licence_type":"CL","operator":"NORTHCOTE PARK FOOTBALL CLUB INC","category":"Club-Full","suburb":"BRUNSWICK","address":"71 SYDNEY ROAD","name":"NORTHCOTE PARK FOOTBALL CLUB","liq_licencee":"NORTHCOTE FOOTBALL CLUB INC","longitude":144.9602966,"latitude":-37.7759,"objectid":535,"district":"Metro","lga":"City of Moreland"},"id":"vcglr_keno_wagering_venues_20190308.fid-5c91773e_1795bb42952_285"},{"type":"Feature","geometry":{"type":"Point","coordinates":[144.77856,-37.79552]},"properties":{"region":"Brimbank (Capped Region)","attached_entitlements":null,"issue_date":null,"type":"Club","postcode":3030,"liq_licence_type":null,"operator":null,"category":"Non-Gaming Club","suburb":"DERRIMUT","address":"475 MT DERRIMUT ROAD","name":"SUNSHINE GOLF CLUB","liq_licencee":null,"longitude":144.77856,"latitude":-37.79552,"objectid":727,"district":"Metro","lga":"City of Brimbank"},"id":"vcglr_keno_wagering_venues_20190308.fid-5c91773e_1795bb42952_286"},{"type":"Feature","geometry":{"type":"Point","coordinates":[145.1761017,-37.9656]},"properties":{"region":"Greater Dandenong (Capped Region)","attached_entitlements":35,"issue_date":"2004-05-25T10:00:00.000+0000","type":"Club","postcode":3174,"liq_licence_type":"CL","operator":"NOBLE PARK RSL SUB-BRANCH INC","category":"Club-Full","suburb":"NOBLE PARK","address":"1128 HEATHERTON ROAD","name":"NOBLE PARK RSL","liq_licencee":"NOBLE PARK RSL SUB BRANCH INC","longitude":145.1761017,"latitude":-37.9656,"objectid":529,"district":"Metro","lga":"City of Greater Dandenong"},"id":"vcglr_keno_wagering_venues_20190308.fid-5c91773e_1795bb42952_287"}]}