{"type":"FeatureCollection","bbox":[144.877977,-37.91422197,145.18193004,-37.67898402],"crs":{"type":"name","properties":{"name":"EPSG:4283"}},"features":[{"type":"Feature","geometry":{"type":"Point","coordinates":[145.09273104,-37.85015799]},"properties":{"STOP_ID":"21092","ROUTES_USING_STOP":"75","LONGITUDE":145.092731,"TICKETZONE":"1,2","LATITUDE":-37.850158,"STOP_NAME":"57-Queens Pde\/Toorak Rd (Camberwell)","OBJECTID":1035},"id":"PTV_METRO_TRAM_STOP.fid--47d7f0d7_17965b514c2_-658d"},{"type":"Feature","geometry":{"type":"Point","coordinates":[145.10030616,-37.83620403]},"properties":{"STOP_ID":"19425","ROUTES_USING_STOP":"70","LONGITUDE":145.100306,"TICKETZONE":"1","LATITUDE":-37.836204,"STOP_NAME":"57-Glendale St\/Riversdale Rd (Surrey Hills)","OBJECTID":1293},"id":"PTV_METRO_TRAM_STOP.fid--47d7f0d7_17965b514c2_-658e"},{"type":"Feature","geometry":{"type":"Point","coordinates":[145.10218392,-37.836531]},"properties":{"STOP_ID":"19424","ROUTES_USING_STOP":"70","LONGITUDE":145.102184,"TICKETZONE":"1","LATITUDE":-37.836531,"STOP_NAME":"58-Wattle Park\/Riversdale Rd (Surrey Hills)","OBJECTID":1292},"id":"PTV_METRO_TRAM_STOP.fid--47d7f0d7_17965b514c2_-658f"},{"type":"Feature","geometry":{"type":"Point","coordinates":[145.10261016,-37.83675501]},"properties":{"STOP_ID":"19776","ROUTES_USING_STOP":"70","LONGITUDE":145.10261,"TICKETZONE":"1","LATITUDE":-37.836755,"STOP_NAME":"58-Wattle Park\/1013 Riversdale Rd (Surrey Hills)","OBJECTID":874},"id":"PTV_METRO_TRAM_STOP.fid--47d7f0d7_17965b514c2_-6590"},{"type":"Feature","geometry":{"type":"Point","coordinates":[145.09546596,-37.850328]},"properties":{"STOP_ID":"21093","ROUTES_USING_STOP":"75","LONGITUDE":145.095466,"TICKETZONE":"1,2","LATITUDE":-37.850328,"STOP_NAME":"58-Warrigal Rd\/Burwood Hwy (Camberwell)","OBJECTID":1036},"id":"PTV_METRO_TRAM_STOP.fid--47d7f0d7_17965b514c2_-6591"},{"type":"Feature","geometry":{"type":"Point","coordinates":[145.09583784,-37.85043303]},"properties":{"STOP_ID":"21094","ROUTES_USING_STOP":"75","LONGITUDE":145.095838,"TICKETZONE":"1,2","LATITUDE":-37.850433,"STOP_NAME":"58-Warrigal Rd\/Burwood Hwy (Burwood)","OBJECTID":1037},"id":"PTV_METRO_TRAM_STOP.fid--47d7f0d7_17965b514c2_-6592"},{"type":"Feature","geometry":{"type":"Point","coordinates":[145.114434,-37.816884]},"properties":{"STOP_ID":"19783","ROUTES_USING_STOP":"109","LONGITUDE":145.114434,"TICKETZONE":"1,2","LATITUDE":-37.816884,"STOP_NAME":"56-Elgar Rd\/Whitehorse Rd (Box Hill)","OBJECTID":880},"id":"PTV_METRO_TRAM_STOP.fid--47d7f0d7_17965b514c2_-6593"},{"type":"Feature","geometry":{"type":"Point","coordinates":[145.10464092,-37.83685896]},"properties":{"STOP_ID":"19423","ROUTES_USING_STOP":"70","LONGITUDE":145.104641,"TICKETZONE":"1","LATITUDE":-37.836859,"STOP_NAME":"59-Alandale St\/Riversdale Rd (Surrey Hills)","OBJECTID":1291},"id":"PTV_METRO_TRAM_STOP.fid--47d7f0d7_17965b514c2_-6594"},{"type":"Feature","geometry":{"type":"Point","coordinates":[145.11559212,-37.816911]},"properties":{"STOP_ID":"19418","ROUTES_USING_STOP":"109","LONGITUDE":145.115592,"TICKETZONE":"1,2","LATITUDE":-37.816911,"STOP_NAME":"56-Elgar Rd\/Whitehorse Rd (Box Hill)","OBJECTID":1287},"id":"PTV_METRO_TRAM_STOP.fid--47d7f0d7_17965b514c2_-6595"},{"type":"Feature","geometry":{"type":"Point","coordinates":[145.10480796,-37.83699702]},"properties":{"STOP_ID":"19777","ROUTES_USING_STOP":"70","LONGITUDE":145.104808,"TICKETZONE":"1","LATITUDE":-37.836997,"STOP_NAME":"59-Alandale St\/Riversdale Rd (Surrey Hills)","OBJECTID":875},"id":"PTV_METRO_TRAM_STOP.fid--47d7f0d7_17965b514c2_-6596"},{"type":"Feature","geometry":{"type":"Point","coordinates":[145.09874016,-37.850742]},"properties":{"STOP_ID":"21096","ROUTES_USING_STOP":"75","LONGITUDE":145.09874,"TICKETZONE":"1,2","LATITUDE":-37.850742,"STOP_NAME":"59-Gilmour St\/Burwood Hwy (Burwood)","OBJECTID":1039},"id":"PTV_METRO_TRAM_STOP.fid--47d7f0d7_17965b514c2_-6597"},{"type":"Feature","geometry":{"type":"Point","coordinates":[145.09897884,-37.85069997]},"properties":{"STOP_ID":"21095","ROUTES_USING_STOP":"75","LONGITUDE":145.098979,"TICKETZONE":"1,2","LATITUDE":-37.8507,"STOP_NAME":"59-Somers St\/Burwood Hwy (Burwood)","OBJECTID":1038},"id":"PTV_METRO_TRAM_STOP.fid--47d7f0d7_17965b514c2_-6598"},{"type":"Feature","geometry":{"type":"Point","coordinates":[145.106658,-37.83708999]},"properties":{"STOP_ID":"19422","ROUTES_USING_STOP":"70","LONGITUDE":145.106658,"TICKETZONE":"1","LATITUDE":-37.83709,"STOP_NAME":"60-Ferndale St\/Riversdale Rd (Surrey Hills)","OBJECTID":1290},"id":"PTV_METRO_TRAM_STOP.fid--47d7f0d7_17965b514c2_-6599"},{"type":"Feature","geometry":{"type":"Point","coordinates":[145.10668896,-37.83720798]},"properties":{"STOP_ID":"19779","ROUTES_USING_STOP":"70","LONGITUDE":145.106689,"TICKETZONE":"1","LATITUDE":-37.837208,"STOP_NAME":"60-Ferndale St\/Riversdale Rd (Surrey Hills)","OBJECTID":877},"id":"PTV_METRO_TRAM_STOP.fid--47d7f0d7_17965b514c2_-659a"},{"type":"Feature","geometry":{"type":"Point","coordinates":[145.11871404,-37.81742103]},"properties":{"STOP_ID":"19782","ROUTES_USING_STOP":"109","LONGITUDE":145.118714,"TICKETZONE":"1,2","LATITUDE":-37.817421,"STOP_NAME":"57-Nelson Rd\/Whitehorse Rd (Box Hill)","OBJECTID":879},"id":"PTV_METRO_TRAM_STOP.fid--47d7f0d7_17965b514c2_-659b"},{"type":"Feature","geometry":{"type":"Point","coordinates":[145.119861,-37.81745703]},"properties":{"STOP_ID":"19419","ROUTES_USING_STOP":"109","LONGITUDE":145.119861,"TICKETZONE":"1,2","LATITUDE":-37.817457,"STOP_NAME":"57-Nelson Rd\/Whitehorse Rd (Box Hill)","OBJECTID":1288},"id":"PTV_METRO_TRAM_STOP.fid--47d7f0d7_17965b514c2_-659c"},{"type":"Feature","geometry":{"type":"Point","coordinates":[145.10208888,-37.85044401]},"properties":{"STOP_ID":"21097","ROUTES_USING_STOP":"75","LONGITUDE":145.102089,"TICKETZONE":"1,2","LATITUDE":-37.850444,"STOP_NAME":"60-Roslyn St\/Burwood Hwy (Burwood)","OBJECTID":1040},"id":"PTV_METRO_TRAM_STOP.fid--47d7f0d7_17965b514c2_-659d"},{"type":"Feature","geometry":{"type":"Point","coordinates":[145.10215512,-37.850508]},"properties":{"STOP_ID":"21098","ROUTES_USING_STOP":"75","LONGITUDE":145.102155,"TICKETZONE":"1,2","LATITUDE":-37.850508,"STOP_NAME":"60-Millicent St\/Burwood Hwy (Burwood)","OBJECTID":1041},"id":"PTV_METRO_TRAM_STOP.fid--47d7f0d7_17965b514c2_-659e"},{"type":"Feature","geometry":{"type":"Point","coordinates":[145.11037212,-37.83760902]},"properties":{"STOP_ID":"19421","ROUTES_USING_STOP":"70","LONGITUDE":145.110372,"TICKETZONE":"1","LATITUDE":-37.837609,"STOP_NAME":"61-Elgar Rd\/Riversdale Rd (Surrey Hills)","OBJECTID":1289},"id":"PTV_METRO_TRAM_STOP.fid--47d7f0d7_17965b514c2_-659f"},{"type":"Feature","geometry":{"type":"Point","coordinates":[145.12234896,-37.81787598]},"properties":{"STOP_ID":"19781","ROUTES_USING_STOP":"109","LONGITUDE":145.122349,"TICKETZONE":"1,2","LATITUDE":-37.817876,"STOP_NAME":"58-Box Hill Central\/Whitehorse Rd (Box Hill)","OBJECTID":878},"id":"PTV_METRO_TRAM_STOP.fid--47d7f0d7_17965b514c2_-65a0"},{"type":"Feature","geometry":{"type":"Point","coordinates":[145.10547612,-37.84996701]},"properties":{"STOP_ID":"21099","ROUTES_USING_STOP":"75","LONGITUDE":145.105476,"TICKETZONE":"1,2","LATITUDE":-37.849967,"STOP_NAME":"61-Presbyterian Ladies College\/Burwood Hwy (Burwood)","OBJECTID":1042},"id":"PTV_METRO_TRAM_STOP.fid--47d7f0d7_17965b514c2_-65a1"},{"type":"Feature","geometry":{"type":"Point","coordinates":[145.10571516,-37.84997997]},"properties":{"STOP_ID":"21100","ROUTES_USING_STOP":"75","LONGITUDE":145.105715,"TICKETZONE":"1,2","LATITUDE":-37.84998,"STOP_NAME":"61-Presbyterian Ladies College\/Burwood Hwy (Burwood)","OBJECTID":1043},"id":"PTV_METRO_TRAM_STOP.fid--47d7f0d7_17965b514c2_-65a2"},{"type":"Feature","geometry":{"type":"Point","coordinates":[145.10844108,-37.84959099]},"properties":{"STOP_ID":"21102","ROUTES_USING_STOP":"75","LONGITUDE":145.108441,"TICKETZONE":"1,2","LATITUDE":-37.849591,"STOP_NAME":"62-Elgar Rd\/Burwood Hwy (Burwood)","OBJECTID":1045},"id":"PTV_METRO_TRAM_STOP.fid--47d7f0d7_17965b514c2_-65a3"},{"type":"Feature","geometry":{"type":"Point","coordinates":[145.10870388,-37.84950504]},"properties":{"STOP_ID":"21101","ROUTES_USING_STOP":"75","LONGITUDE":145.108704,"TICKETZONE":"1,2","LATITUDE":-37.849505,"STOP_NAME":"62-Elgar Rd\/Burwood Hwy (Burwood)","OBJECTID":1044},"id":"PTV_METRO_TRAM_STOP.fid--47d7f0d7_17965b514c2_-65a4"},{"type":"Feature","geometry":{"type":"Point","coordinates":[145.11523788,-37.84998897]},"properties":{"STOP_ID":"21103","ROUTES_USING_STOP":"75","LONGITUDE":145.115238,"TICKETZONE":"1,2","LATITUDE":-37.849989,"STOP_NAME":"63-Deakin University\/Burwood Hwy (Burwood)","OBJECTID":1046},"id":"PTV_METRO_TRAM_STOP.fid--47d7f0d7_17965b514c2_-65a5"},{"type":"Feature","geometry":{"type":"Point","coordinates":[145.11540708,-37.85008104]},"properties":{"STOP_ID":"21104","ROUTES_USING_STOP":"75","LONGITUDE":145.115407,"TICKETZONE":"1,2","LATITUDE":-37.850081,"STOP_NAME":"63-Deakin University\/Burwood Hwy (Burwood)","OBJECTID":1047},"id":"PTV_METRO_TRAM_STOP.fid--47d7f0d7_17965b514c2_-65a6"},{"type":"Feature","geometry":{"type":"Point","coordinates":[145.11939516,-37.85055102]},"properties":{"STOP_ID":"21105","ROUTES_USING_STOP":"75","LONGITUDE":145.119395,"TICKETZONE":"1,2","LATITUDE":-37.850551,"STOP_NAME":"64-Station St\/Burwood Hwy (Burwood)","OBJECTID":1048},"id":"PTV_METRO_TRAM_STOP.fid--47d7f0d7_17965b514c2_-65a7"},{"type":"Feature","geometry":{"type":"Point","coordinates":[145.12058712,-37.85060601]},"properties":{"STOP_ID":"21106","ROUTES_USING_STOP":"75","LONGITUDE":145.120587,"TICKETZONE":"1,2","LATITUDE":-37.850606,"STOP_NAME":"64-Station St\/Burwood Hwy (Burwood)","OBJECTID":1049},"id":"PTV_METRO_TRAM_STOP.fid--47d7f0d7_17965b514c2_-65a8"},{"type":"Feature","geometry":{"type":"Point","coordinates":[145.125981,-37.85126004]},"properties":{"STOP_ID":"21107","ROUTES_USING_STOP":"75","LONGITUDE":145.125981,"TICKETZONE":"1,2","LATITUDE":-37.85126,"STOP_NAME":"65-Starling St\/Burwood Hwy (Burwood)","OBJECTID":1050},"id":"PTV_METRO_TRAM_STOP.fid--47d7f0d7_17965b514c2_-65a9"},{"type":"Feature","geometry":{"type":"Point","coordinates":[145.12631904,-37.85136399]},"properties":{"STOP_ID":"21108","ROUTES_USING_STOP":"75","LONGITUDE":145.126319,"TICKETZONE":"1,2","LATITUDE":-37.851364,"STOP_NAME":"65-Starling St\/Burwood Hwy (Burwood)","OBJECTID":1051},"id":"PTV_METRO_TRAM_STOP.fid--47d7f0d7_17965b514c2_-65aa"},{"type":"Feature","geometry":{"type":"Point","coordinates":[145.13183712,-37.85202]},"properties":{"STOP_ID":"21109","ROUTES_USING_STOP":"75","LONGITUDE":145.131837,"TICKETZONE":"1,2","LATITUDE":-37.85202,"STOP_NAME":"66-Middleborough Rd\/Burwood Hwy (Burwood)","OBJECTID":1052},"id":"PTV_METRO_TRAM_STOP.fid--47d7f0d7_17965b514c2_-65ab"},{"type":"Feature","geometry":{"type":"Point","coordinates":[145.13321196,-37.85202297]},"properties":{"STOP_ID":"21110","ROUTES_USING_STOP":"75","LONGITUDE":145.133212,"TICKETZONE":"1,2","LATITUDE":-37.852023,"STOP_NAME":"66-Middleborough Rd\/Burwood Hwy (Burwood)","OBJECTID":1053},"id":"PTV_METRO_TRAM_STOP.fid--47d7f0d7_17965b514c2_-65ac"},{"type":"Feature","geometry":{"type":"Point","coordinates":[145.13813604,-37.85147901]},"properties":{"STOP_ID":"21111","ROUTES_USING_STOP":"75","LONGITUDE":145.138136,"TICKETZONE":"1,2","LATITUDE":-37.851479,"STOP_NAME":"67-Old Burwood Rd\/Burwood Hwy (Burwood East)","OBJECTID":1054},"id":"PTV_METRO_TRAM_STOP.fid--47d7f0d7_17965b514c2_-65ad"},{"type":"Feature","geometry":{"type":"Point","coordinates":[145.13829516,-37.85148198]},"properties":{"STOP_ID":"21112","ROUTES_USING_STOP":"75","LONGITUDE":145.138295,"TICKETZONE":"1,2","LATITUDE":-37.851482,"STOP_NAME":"67-Old Burwood Rd\/Burwood Hwy (Burwood East)","OBJECTID":1055},"id":"PTV_METRO_TRAM_STOP.fid--47d7f0d7_17965b514c2_-65ae"},{"type":"Feature","geometry":{"type":"Point","coordinates":[145.14188004,-37.85128596]},"properties":{"STOP_ID":"21113","ROUTES_USING_STOP":"75","LONGITUDE":145.14188,"TICKETZONE":"1,2","LATITUDE":-37.851286,"STOP_NAME":"68-Benwerrin Reserve\/Burwood Hwy (Burwood East)","OBJECTID":1056},"id":"PTV_METRO_TRAM_STOP.fid--47d7f0d7_17965b514c2_-65af"},{"type":"Feature","geometry":{"type":"Point","coordinates":[145.142037,-37.85137902]},"properties":{"STOP_ID":"21114","ROUTES_USING_STOP":"75","LONGITUDE":145.142037,"TICKETZONE":"1,2","LATITUDE":-37.851379,"STOP_NAME":"68-Benwerrin Reserve\/Burwood Hwy (Burwood East)","OBJECTID":1057},"id":"PTV_METRO_TRAM_STOP.fid--47d7f0d7_17965b514c2_-65b0"},{"type":"Feature","geometry":{"type":"Point","coordinates":[145.14624216,-37.85185098]},"properties":{"STOP_ID":"21115","ROUTES_USING_STOP":"75","LONGITUDE":145.146242,"TICKETZONE":"1,2","LATITUDE":-37.851851,"STOP_NAME":"69-Keats St\/Burwood Hwy (Burwood East)","OBJECTID":1058},"id":"PTV_METRO_TRAM_STOP.fid--47d7f0d7_17965b514c2_-65b1"},{"type":"Feature","geometry":{"type":"Point","coordinates":[145.14634188,-37.85194197]},"properties":{"STOP_ID":"21116","ROUTES_USING_STOP":"75","LONGITUDE":145.146342,"TICKETZONE":"1,2","LATITUDE":-37.851942,"STOP_NAME":"69-Highview Gr\/Burwood Hwy (Burwood East)","OBJECTID":1059},"id":"PTV_METRO_TRAM_STOP.fid--47d7f0d7_17965b514c2_-65b2"},{"type":"Feature","geometry":{"type":"Point","coordinates":[145.15112196,-37.85257602]},"properties":{"STOP_ID":"21117","ROUTES_USING_STOP":"75","LONGITUDE":145.151122,"TICKETZONE":"1,2","LATITUDE":-37.852576,"STOP_NAME":"70-Blackburn Rd\/Burwood Hwy (Burwood East)","OBJECTID":1060},"id":"PTV_METRO_TRAM_STOP.fid--47d7f0d7_17965b514c2_-65b3"},{"type":"Feature","geometry":{"type":"Point","coordinates":[145.15284708,-37.85269401]},"properties":{"STOP_ID":"21118","ROUTES_USING_STOP":"75","LONGITUDE":145.152847,"TICKETZONE":"1,2","LATITUDE":-37.852694,"STOP_NAME":"70-Blackburn Rd\/Burwood Hwy (Burwood East)","OBJECTID":1061},"id":"PTV_METRO_TRAM_STOP.fid--47d7f0d7_17965b514c2_-65b4"},{"type":"Feature","geometry":{"type":"Point","coordinates":[145.15854084,-37.85362101]},"properties":{"STOP_ID":"21119","ROUTES_USING_STOP":"75","LONGITUDE":145.158541,"TICKETZONE":"1,2","LATITUDE":-37.853621,"STOP_NAME":"71-Sevenoaks Rd\/Burwood Hwy (Burwood East)","OBJECTID":1062},"id":"PTV_METRO_TRAM_STOP.fid--47d7f0d7_17965b514c2_-65b5"},{"type":"Feature","geometry":{"type":"Point","coordinates":[145.15898508,-37.85359203]},"properties":{"STOP_ID":"21120","ROUTES_USING_STOP":"75","LONGITUDE":145.158985,"TICKETZONE":"1,2","LATITUDE":-37.853592,"STOP_NAME":"71-Sevenoaks Rd\/Burwood Hwy (Burwood East)","OBJECTID":1063},"id":"PTV_METRO_TRAM_STOP.fid--47d7f0d7_17965b514c2_-65b6"},{"type":"Feature","geometry":{"type":"Point","coordinates":[145.16463708,-37.85436504]},"properties":{"STOP_ID":"21121","ROUTES_USING_STOP":"75","LONGITUDE":145.164637,"TICKETZONE":"1,2","LATITUDE":-37.854365,"STOP_NAME":"72-Lakeside Dr\/Burwood Hwy (Burwood East)","OBJECTID":1064},"id":"PTV_METRO_TRAM_STOP.fid--47d7f0d7_17965b514c2_-65b7"},{"type":"Feature","geometry":{"type":"Point","coordinates":[145.16606808,-37.854414]},"properties":{"STOP_ID":"21122","ROUTES_USING_STOP":"75","LONGITUDE":145.166068,"TICKETZONE":"1,2","LATITUDE":-37.854414,"STOP_NAME":"72-Lakeside Dr\/Burwood Hwy (Burwood East)","OBJECTID":1065},"id":"PTV_METRO_TRAM_STOP.fid--47d7f0d7_17965b514c2_-65b8"},{"type":"Feature","geometry":{"type":"Point","coordinates":[145.16819604,-37.85476302]},"properties":{"STOP_ID":"21123","ROUTES_USING_STOP":"75","LONGITUDE":145.168196,"TICKETZONE":"1,2","LATITUDE":-37.854763,"STOP_NAME":"73-Springvale Rd\/Burwood Hwy (Burwood East)","OBJECTID":1066},"id":"PTV_METRO_TRAM_STOP.fid--47d7f0d7_17965b514c2_-65b9"},{"type":"Feature","geometry":{"type":"Point","coordinates":[145.17015804,-37.85493798]},"properties":{"STOP_ID":"21124","ROUTES_USING_STOP":"75","LONGITUDE":145.170158,"TICKETZONE":"1,2","LATITUDE":-37.854938,"STOP_NAME":"73-Springvale Rd\/Burwood Hwy (Vermont South)","OBJECTID":1067},"id":"PTV_METRO_TRAM_STOP.fid--47d7f0d7_17965b514c2_-65ba"},{"type":"Feature","geometry":{"type":"Point","coordinates":[145.17459792,-37.85555601]},"properties":{"STOP_ID":"21126","ROUTES_USING_STOP":"75","LONGITUDE":145.174598,"TICKETZONE":"1,2","LATITUDE":-37.855556,"STOP_NAME":"74-Stanley Rd\/Burwood Hwy (Vermont South)","OBJECTID":1069},"id":"PTV_METRO_TRAM_STOP.fid--47d7f0d7_17965b514c2_-65bb"},{"type":"Feature","geometry":{"type":"Point","coordinates":[145.17497412,-37.85554404]},"properties":{"STOP_ID":"21125","ROUTES_USING_STOP":"75","LONGITUDE":145.174974,"TICKETZONE":"1,2","LATITUDE":-37.855544,"STOP_NAME":"74-Stanley Rd\/Burwood Hwy (Vermont South)","OBJECTID":1068},"id":"PTV_METRO_TRAM_STOP.fid--47d7f0d7_17965b514c2_-65bc"},{"type":"Feature","geometry":{"type":"Point","coordinates":[145.18193004,-37.85644503]},"properties":{"STOP_ID":"21127","ROUTES_USING_STOP":"75","LONGITUDE":145.18193,"TICKETZONE":"1,2","LATITUDE":-37.856445,"STOP_NAME":"75-Vermont South Shopping Centre\/Burwood Hwy (Vermont South)","OBJECTID":1070},"id":"PTV_METRO_TRAM_STOP.fid--47d7f0d7_17965b514c2_-65bd"},{"type":"Feature","geometry":{"type":"Point","coordinates":[145.069119,-37.84212198]},"properties":{"STOP_ID":"21074","ROUTES_USING_STOP":"75","LONGITUDE":145.069119,"TICKETZONE":"1,2","LATITUDE":-37.842122,"STOP_NAME":"48-Orrong Cres\/Camberwell Rd (Camberwell)","OBJECTID":1017},"id":"PTV_METRO_TRAM_STOP.fid--47d7f0d7_17965b514c2_-65be"},{"type":"Feature","geometry":{"type":"Point","coordinates":[145.06915896,-37.84233897]},"properties":{"STOP_ID":"21075","ROUTES_USING_STOP":"75","LONGITUDE":145.069159,"TICKETZONE":"1,2","LATITUDE":-37.842339,"STOP_NAME":"48-Glen Iris Rd\/Camberwell Rd (Camberwell)","OBJECTID":1018},"id":"PTV_METRO_TRAM_STOP.fid--47d7f0d7_17965b514c2_-65bf"},{"type":"Feature","geometry":{"type":"Point","coordinates":[145.08775512,-37.81355202]},"properties":{"STOP_ID":"19411","ROUTES_USING_STOP":"109","LONGITUDE":145.087755,"TICKETZONE":"1,2","LATITUDE":-37.813552,"STOP_NAME":"49-Northcote Ave\/Whitehorse Rd (Balwyn)","OBJECTID":1281},"id":"PTV_METRO_TRAM_STOP.fid--47d7f0d7_17965b514c2_-65c0"},{"type":"Feature","geometry":{"type":"Point","coordinates":[145.07710092,-37.83365496]},"properties":{"STOP_ID":"19434","ROUTES_USING_STOP":"70","LONGITUDE":145.077101,"TICKETZONE":"1","LATITUDE":-37.833655,"STOP_NAME":"48-Cooloongatta Rd\/Riversdale Rd (Camberwell)","OBJECTID":1302},"id":"PTV_METRO_TRAM_STOP.fid--47d7f0d7_17965b514c2_-65c1"},{"type":"Feature","geometry":{"type":"Point","coordinates":[145.07142984,-37.84414203]},"properties":{"STOP_ID":"21076","ROUTES_USING_STOP":"75","LONGITUDE":145.07143,"TICKETZONE":"1,2","LATITUDE":-37.844142,"STOP_NAME":"49-Tyrone St\/Camberwell Rd (Camberwell)","OBJECTID":1019},"id":"PTV_METRO_TRAM_STOP.fid--47d7f0d7_17965b514c2_-65c2"},{"type":"Feature","geometry":{"type":"Point","coordinates":[145.087956,-37.81368999]},"properties":{"STOP_ID":"18737","ROUTES_USING_STOP":"109","LONGITUDE":145.087956,"TICKETZONE":"1,2","LATITUDE":-37.81369,"STOP_NAME":"49-Northcote Ave\/Whitehorse Rd (Balwyn)","OBJECTID":7},"id":"PTV_METRO_TRAM_STOP.fid--47d7f0d7_17965b514c2_-65c3"},{"type":"Feature","geometry":{"type":"Point","coordinates":[145.07724492,-37.83379302]},"properties":{"STOP_ID":"19766","ROUTES_USING_STOP":"70","LONGITUDE":145.077245,"TICKETZONE":"1","LATITUDE":-37.833793,"STOP_NAME":"48-Cooloongatta Rd\/Riversdale Rd (Camberwell)","OBJECTID":864},"id":"PTV_METRO_TRAM_STOP.fid--47d7f0d7_17965b514c2_-65c4"},{"type":"Feature","geometry":{"type":"Point","coordinates":[145.07152488,-37.84443201]},"properties":{"STOP_ID":"21077","ROUTES_USING_STOP":"75","LONGITUDE":145.071525,"TICKETZONE":"1,2","LATITUDE":-37.844432,"STOP_NAME":"49-Wilson Gr\/Camberwell Rd (Camberwell)","OBJECTID":1020},"id":"PTV_METRO_TRAM_STOP.fid--47d7f0d7_17965b514c2_-65c5"},{"type":"Feature","geometry":{"type":"Point","coordinates":[145.07933292,-37.83389004]},"properties":{"STOP_ID":"19433","ROUTES_USING_STOP":"70","LONGITUDE":145.079333,"TICKETZONE":"1","LATITUDE":-37.83389,"STOP_NAME":"49-Glyndon Rd\/Riversdale Rd (Camberwell)","OBJECTID":1301},"id":"PTV_METRO_TRAM_STOP.fid--47d7f0d7_17965b514c2_-65c6"},{"type":"Feature","geometry":{"type":"Point","coordinates":[145.07320284,-37.84591098]},"properties":{"STOP_ID":"21079","ROUTES_USING_STOP":"75","LONGITUDE":145.073203,"TICKETZONE":"1,2","LATITUDE":-37.845911,"STOP_NAME":"50-Smith Rd\/Camberwell Rd (Camberwell)","OBJECTID":1022},"id":"PTV_METRO_TRAM_STOP.fid--47d7f0d7_17965b514c2_-65c7"},{"type":"Feature","geometry":{"type":"Point","coordinates":[145.07964612,-37.83408399]},"properties":{"STOP_ID":"19767","ROUTES_USING_STOP":"70","LONGITUDE":145.079646,"TICKETZONE":"1","LATITUDE":-37.834084,"STOP_NAME":"49-Glyndon Rd\/Riversdale Rd (Camberwell)","OBJECTID":865},"id":"PTV_METRO_TRAM_STOP.fid--47d7f0d7_17965b514c2_-65c8"},{"type":"Feature","geometry":{"type":"Point","coordinates":[145.07340696,-37.84591404]},"properties":{"STOP_ID":"21078","ROUTES_USING_STOP":"75","LONGITUDE":145.073407,"TICKETZONE":"1,2","LATITUDE":-37.845914,"STOP_NAME":"50-Fordham Gardens\/Camberwell Rd (Camberwell)","OBJECTID":1021},"id":"PTV_METRO_TRAM_STOP.fid--47d7f0d7_17965b514c2_-65c9"},{"type":"Feature","geometry":{"type":"Point","coordinates":[145.091376,-37.81410597]},"properties":{"STOP_ID":"18479","ROUTES_USING_STOP":"109","LONGITUDE":145.091376,"TICKETZONE":"1,2","LATITUDE":-37.814106,"STOP_NAME":"50-Wharton St\/Whitehorse Rd (Surrey Hills)","OBJECTID":286},"id":"PTV_METRO_TRAM_STOP.fid--47d7f0d7_17965b514c2_-65ca"},{"type":"Feature","geometry":{"type":"Point","coordinates":[145.09168488,-37.81403001]},"properties":{"STOP_ID":"19412","ROUTES_USING_STOP":"109","LONGITUDE":145.091685,"TICKETZONE":"1,2","LATITUDE":-37.81403,"STOP_NAME":"50-Wharton St\/Whitehorse Rd (Surrey Hills)","OBJECTID":1282},"id":"PTV_METRO_TRAM_STOP.fid--47d7f0d7_17965b514c2_-65cb"},{"type":"Feature","geometry":{"type":"Point","coordinates":[145.08120204,-37.834119]},"properties":{"STOP_ID":"19432","ROUTES_USING_STOP":"70","LONGITUDE":145.081202,"TICKETZONE":"1","LATITUDE":-37.834119,"STOP_NAME":"50-Wattle Valley Rd\/Riversdale Rd (Canterbury)","OBJECTID":1300},"id":"PTV_METRO_TRAM_STOP.fid--47d7f0d7_17965b514c2_-65cc"},{"type":"Feature","geometry":{"type":"Point","coordinates":[145.08151596,-37.83429504]},"properties":{"STOP_ID":"19768","ROUTES_USING_STOP":"70","LONGITUDE":145.081516,"TICKETZONE":"1","LATITUDE":-37.834295,"STOP_NAME":"50-Wattle Valley Rd\/Riversdale Rd (Canterbury)","OBJECTID":866},"id":"PTV_METRO_TRAM_STOP.fid--47d7f0d7_17965b514c2_-65cd"},{"type":"Feature","geometry":{"type":"Point","coordinates":[145.07561808,-37.84784301]},"properties":{"STOP_ID":"21080","ROUTES_USING_STOP":"75","LONGITUDE":145.075618,"TICKETZONE":"1,2","LATITUDE":-37.847843,"STOP_NAME":"51-Toorak Rd\/Camberwell Rd (Camberwell)","OBJECTID":1023},"id":"PTV_METRO_TRAM_STOP.fid--47d7f0d7_17965b514c2_-65ce"},{"type":"Feature","geometry":{"type":"Point","coordinates":[145.094787,-37.81440504]},"properties":{"STOP_ID":"19413","ROUTES_USING_STOP":"109","LONGITUDE":145.094787,"TICKETZONE":"1,2","LATITUDE":-37.814405,"STOP_NAME":"51-Narrak Rd\/Whitehorse Rd (Balwyn)","OBJECTID":1283},"id":"PTV_METRO_TRAM_STOP.fid--47d7f0d7_17965b514c2_-65cf"},{"type":"Feature","geometry":{"type":"Point","coordinates":[145.09517004,-37.81456398]},"properties":{"STOP_ID":"18738","ROUTES_USING_STOP":"109","LONGITUDE":145.09517,"TICKETZONE":"1,2","LATITUDE":-37.814564,"STOP_NAME":"51-Narrak Rd\/Whitehorse Rd (Mont Albert)","OBJECTID":8},"id":"PTV_METRO_TRAM_STOP.fid--47d7f0d7_17965b514c2_-65d0"},{"type":"Feature","geometry":{"type":"Point","coordinates":[145.077075,-37.84820004]},"properties":{"STOP_ID":"21081","ROUTES_USING_STOP":"75","LONGITUDE":145.077075,"TICKETZONE":"1,2","LATITUDE":-37.8482,"STOP_NAME":"52-Summerhill Rd\/Toorak Rd (Camberwell)","OBJECTID":1024},"id":"PTV_METRO_TRAM_STOP.fid--47d7f0d7_17965b514c2_-65d1"},{"type":"Feature","geometry":{"type":"Point","coordinates":[145.08485388,-37.83436704]},"properties":{"STOP_ID":"19431","ROUTES_USING_STOP":"70","LONGITUDE":145.084854,"TICKETZONE":"1","LATITUDE":-37.834367,"STOP_NAME":"51-Highfield Rd\/Riversdale Rd (Canterbury)","OBJECTID":1299},"id":"PTV_METRO_TRAM_STOP.fid--47d7f0d7_17965b514c2_-65d2"},{"type":"Feature","geometry":{"type":"Point","coordinates":[145.07741196,-37.84835898]},"properties":{"STOP_ID":"21082","ROUTES_USING_STOP":"75","LONGITUDE":145.077412,"TICKETZONE":"1,2","LATITUDE":-37.848359,"STOP_NAME":"52-Summerhill Rd\/Toorak Rd (Camberwell)","OBJECTID":1025},"id":"PTV_METRO_TRAM_STOP.fid--47d7f0d7_17965b514c2_-65d3"},{"type":"Feature","geometry":{"type":"Point","coordinates":[145.08514512,-37.83453399]},"properties":{"STOP_ID":"19769","ROUTES_USING_STOP":"70","LONGITUDE":145.085145,"TICKETZONE":"1","LATITUDE":-37.834534,"STOP_NAME":"51-Highfield Rd\/Riversdale Rd (Camberwell)","OBJECTID":867},"id":"PTV_METRO_TRAM_STOP.fid--47d7f0d7_17965b514c2_-65d4"},{"type":"Feature","geometry":{"type":"Point","coordinates":[145.08813996,-37.83475404]},"properties":{"STOP_ID":"19430","ROUTES_USING_STOP":"70","LONGITUDE":145.08814,"TICKETZONE":"1","LATITUDE":-37.834754,"STOP_NAME":"52-Lockhart St\/Riversdale Rd (Camberwell)","OBJECTID":1298},"id":"PTV_METRO_TRAM_STOP.fid--47d7f0d7_17965b514c2_-65d5"},{"type":"Feature","geometry":{"type":"Point","coordinates":[145.09924884,-37.81494603]},"properties":{"STOP_ID":"19414","ROUTES_USING_STOP":"109","LONGITUDE":145.099249,"TICKETZONE":"1,2","LATITUDE":-37.814946,"STOP_NAME":"53-Union Rd\/Whitehorse Rd (Balwyn)","OBJECTID":1284},"id":"PTV_METRO_TRAM_STOP.fid--47d7f0d7_17965b514c2_-65d6"},{"type":"Feature","geometry":{"type":"Point","coordinates":[145.08853308,-37.83492297]},"properties":{"STOP_ID":"19770","ROUTES_USING_STOP":"70","LONGITUDE":145.088533,"TICKETZONE":"1","LATITUDE":-37.834923,"STOP_NAME":"52-Lockhart St\/Riversdale Rd (Camberwell)","OBJECTID":868},"id":"PTV_METRO_TRAM_STOP.fid--47d7f0d7_17965b514c2_-65d7"},{"type":"Feature","geometry":{"type":"Point","coordinates":[145.09951812,-37.81511199]},"properties":{"STOP_ID":"19786","ROUTES_USING_STOP":"109","LONGITUDE":145.099518,"TICKETZONE":"1,2","LATITUDE":-37.815112,"STOP_NAME":"53-Union Rd\/Whitehorse Rd (Surrey Hills)","OBJECTID":883},"id":"PTV_METRO_TRAM_STOP.fid--47d7f0d7_17965b514c2_-65d8"},{"type":"Feature","geometry":{"type":"Point","coordinates":[145.08181188,-37.84873698]},"properties":{"STOP_ID":"21083","ROUTES_USING_STOP":"75","LONGITUDE":145.081812,"TICKETZONE":"1,2","LATITUDE":-37.848737,"STOP_NAME":"53-Highfield Rd\/Toorak Rd (Camberwell)","OBJECTID":1026},"id":"PTV_METRO_TRAM_STOP.fid--47d7f0d7_17965b514c2_-65d9"},{"type":"Feature","geometry":{"type":"Point","coordinates":[145.08229608,-37.84891599]},"properties":{"STOP_ID":"21084","ROUTES_USING_STOP":"75","LONGITUDE":145.082296,"TICKETZONE":"1,2","LATITUDE":-37.848916,"STOP_NAME":"53-Lithgow St\/Toorak Rd (Camberwell)","OBJECTID":1027},"id":"PTV_METRO_TRAM_STOP.fid--47d7f0d7_17965b514c2_-65da"},{"type":"Feature","geometry":{"type":"Point","coordinates":[145.09094904,-37.83508803]},"properties":{"STOP_ID":"19429","ROUTES_USING_STOP":"70","LONGITUDE":145.090949,"TICKETZONE":"1","LATITUDE":-37.835088,"STOP_NAME":"53-Essex Rd\/Riversdale Rd (Surrey Hills)","OBJECTID":1297},"id":"PTV_METRO_TRAM_STOP.fid--47d7f0d7_17965b514c2_-65db"},{"type":"Feature","geometry":{"type":"Point","coordinates":[145.09096812,-37.83521502]},"properties":{"STOP_ID":"19771","ROUTES_USING_STOP":"70","LONGITUDE":145.090968,"TICKETZONE":"1","LATITUDE":-37.835215,"STOP_NAME":"53-Essex Rd\/Riversdale Rd (Camberwell)","OBJECTID":869},"id":"PTV_METRO_TRAM_STOP.fid--47d7f0d7_17965b514c2_-65dc"},{"type":"Feature","geometry":{"type":"Point","coordinates":[145.08430416,-37.84903902]},"properties":{"STOP_ID":"21085","ROUTES_USING_STOP":"75","LONGITUDE":145.084304,"TICKETZONE":"1,2","LATITUDE":-37.849039,"STOP_NAME":"54-Oberwyl Rd\/Toorak Rd (Camberwell)","OBJECTID":1028},"id":"PTV_METRO_TRAM_STOP.fid--47d7f0d7_17965b514c2_-65dd"},{"type":"Feature","geometry":{"type":"Point","coordinates":[145.10275704,-37.81548]},"properties":{"STOP_ID":"19785","ROUTES_USING_STOP":"109","LONGITUDE":145.102757,"TICKETZONE":"1,2","LATITUDE":-37.81548,"STOP_NAME":"54-Inglisby Rd\/Whitehorse Rd (Mont Albert)","OBJECTID":882},"id":"PTV_METRO_TRAM_STOP.fid--47d7f0d7_17965b514c2_-65de"},{"type":"Feature","geometry":{"type":"Point","coordinates":[145.08459612,-37.84919697]},"properties":{"STOP_ID":"21086","ROUTES_USING_STOP":"75","LONGITUDE":145.084596,"TICKETZONE":"1,2","LATITUDE":-37.849197,"STOP_NAME":"54-Grandview Ave\/Toorak Rd (Camberwell)","OBJECTID":1029},"id":"PTV_METRO_TRAM_STOP.fid--47d7f0d7_17965b514c2_-65df"},{"type":"Feature","geometry":{"type":"Point","coordinates":[145.10312316,-37.81540503]},"properties":{"STOP_ID":"19416","ROUTES_USING_STOP":"109","LONGITUDE":145.103123,"TICKETZONE":"1,2","LATITUDE":-37.815405,"STOP_NAME":"54-Inglisby Rd\/Whitehorse Rd (Mont Albert)","OBJECTID":1285},"id":"PTV_METRO_TRAM_STOP.fid--47d7f0d7_17965b514c2_-65e0"},{"type":"Feature","geometry":{"type":"Point","coordinates":[145.09319184,-37.83534102]},"properties":{"STOP_ID":"19428","ROUTES_USING_STOP":"70","LONGITUDE":145.093192,"TICKETZONE":"1","LATITUDE":-37.835341,"STOP_NAME":"54-Through Rd\/Riversdale Rd (Surrey Hills)","OBJECTID":1296},"id":"PTV_METRO_TRAM_STOP.fid--47d7f0d7_17965b514c2_-65e1"},{"type":"Feature","geometry":{"type":"Point","coordinates":[145.09380096,-37.83553101]},"properties":{"STOP_ID":"19772","ROUTES_USING_STOP":"70","LONGITUDE":145.093801,"TICKETZONE":"1","LATITUDE":-37.835531,"STOP_NAME":"54-Through Rd\/Riversdale Rd (Camberwell)","OBJECTID":870},"id":"PTV_METRO_TRAM_STOP.fid--47d7f0d7_17965b514c2_-65e2"},{"type":"Feature","geometry":{"type":"Point","coordinates":[145.08671796,-37.84932099]},"properties":{"STOP_ID":"21087","ROUTES_USING_STOP":"75","LONGITUDE":145.086718,"TICKETZONE":"1,2","LATITUDE":-37.849321,"STOP_NAME":"55-Through Rd\/Toorak Rd (Camberwell)","OBJECTID":1030},"id":"PTV_METRO_TRAM_STOP.fid--47d7f0d7_17965b514c2_-65e3"},{"type":"Feature","geometry":{"type":"Point","coordinates":[145.08725796,-37.84951899]},"properties":{"STOP_ID":"21088","ROUTES_USING_STOP":"75","LONGITUDE":145.087258,"TICKETZONE":"1,2","LATITUDE":-37.849519,"STOP_NAME":"55-Beryl St\/Toorak Rd (Camberwell)","OBJECTID":1031},"id":"PTV_METRO_TRAM_STOP.fid--47d7f0d7_17965b514c2_-65e4"},{"type":"Feature","geometry":{"type":"Point","coordinates":[145.09540188,-37.83557502]},"properties":{"STOP_ID":"19427","ROUTES_USING_STOP":"70","LONGITUDE":145.095402,"TICKETZONE":"1","LATITUDE":-37.835575,"STOP_NAME":"55-Union Rd\/Riversdale Rd (Surrey Hills)","OBJECTID":1295},"id":"PTV_METRO_TRAM_STOP.fid--47d7f0d7_17965b514c2_-65e5"},{"type":"Feature","geometry":{"type":"Point","coordinates":[145.09581804,-37.83576204]},"properties":{"STOP_ID":"19773","ROUTES_USING_STOP":"70","LONGITUDE":145.095818,"TICKETZONE":"1","LATITUDE":-37.835762,"STOP_NAME":"55-Union Rd\/Riversdale Rd (Canterbury)","OBJECTID":871},"id":"PTV_METRO_TRAM_STOP.fid--47d7f0d7_17965b514c2_-65e6"},{"type":"Feature","geometry":{"type":"Point","coordinates":[145.08959616,-37.84965597]},"properties":{"STOP_ID":"21089","ROUTES_USING_STOP":"75","LONGITUDE":145.089596,"TICKETZONE":"1,2","LATITUDE":-37.849656,"STOP_NAME":"56-Barkly St\/Toorak Rd (Camberwell)","OBJECTID":1032},"id":"PTV_METRO_TRAM_STOP.fid--47d7f0d7_17965b514c2_-65e7"},{"type":"Feature","geometry":{"type":"Point","coordinates":[145.09005696,-37.84985298]},"properties":{"STOP_ID":"21090","ROUTES_USING_STOP":"75","LONGITUDE":145.090057,"TICKETZONE":"1,2","LATITUDE":-37.849853,"STOP_NAME":"56-Alfred Rd\/Toorak Rd (Camberwell)","OBJECTID":1033},"id":"PTV_METRO_TRAM_STOP.fid--47d7f0d7_17965b514c2_-65e8"},{"type":"Feature","geometry":{"type":"Point","coordinates":[145.09805292,-37.83589704]},"properties":{"STOP_ID":"19426","ROUTES_USING_STOP":"70","LONGITUDE":145.098053,"TICKETZONE":"1","LATITUDE":-37.835897,"STOP_NAME":"56-Warrigal Rd\/Riversdale Rd (Surrey Hills)","OBJECTID":1294},"id":"PTV_METRO_TRAM_STOP.fid--47d7f0d7_17965b514c2_-65e9"},{"type":"Feature","geometry":{"type":"Point","coordinates":[145.09838916,-37.83606498]},"properties":{"STOP_ID":"19774","ROUTES_USING_STOP":"70","LONGITUDE":145.098389,"TICKETZONE":"1","LATITUDE":-37.836065,"STOP_NAME":"56-Warrigal Rd\/Riversdale Rd (Surrey Hills)","OBJECTID":872},"id":"PTV_METRO_TRAM_STOP.fid--47d7f0d7_17965b514c2_-65ea"},{"type":"Feature","geometry":{"type":"Point","coordinates":[145.10945304,-37.816164]},"properties":{"STOP_ID":"19417","ROUTES_USING_STOP":"109","LONGITUDE":145.109453,"TICKETZONE":"1,2","LATITUDE":-37.816164,"STOP_NAME":"55-Hood St\/Whitehorse Rd (Mont Albert)","OBJECTID":1286},"id":"PTV_METRO_TRAM_STOP.fid--47d7f0d7_17965b514c2_-65eb"},{"type":"Feature","geometry":{"type":"Point","coordinates":[145.10982384,-37.81634103]},"properties":{"STOP_ID":"19784","ROUTES_USING_STOP":"109","LONGITUDE":145.109824,"TICKETZONE":"1,2","LATITUDE":-37.816341,"STOP_NAME":"55-Hood St\/Whitehorse Rd (Mont Albert)","OBJECTID":881},"id":"PTV_METRO_TRAM_STOP.fid--47d7f0d7_17965b514c2_-65ec"},{"type":"Feature","geometry":{"type":"Point","coordinates":[145.09236096,-37.84998096]},"properties":{"STOP_ID":"21091","ROUTES_USING_STOP":"75","LONGITUDE":145.092361,"TICKETZONE":"1,2","LATITUDE":-37.849981,"STOP_NAME":"57-Fairview Ave\/Toorak Rd (Camberwell)","OBJECTID":1034},"id":"PTV_METRO_TRAM_STOP.fid--47d7f0d7_17965b514c2_-65ed"},{"type":"Feature","geometry":{"type":"Point","coordinates":[145.10001996,-37.83627099]},"properties":{"STOP_ID":"19775","ROUTES_USING_STOP":"70","LONGITUDE":145.10002,"TICKETZONE":"1","LATITUDE":-37.836271,"STOP_NAME":"57-Glendale St\/Riversdale Rd (Surrey Hills)","OBJECTID":873},"id":"PTV_METRO_TRAM_STOP.fid--47d7f0d7_17965b514c2_-65ee"},{"type":"Feature","geometry":{"type":"Point","coordinates":[145.02415392,-37.87525098]},"properties":{"STOP_ID":"18428","ROUTES_USING_STOP":"64","LONGITUDE":145.024154,"TICKETZONE":"1","LATITUDE":-37.875251,"STOP_NAME":"52-Halstead St\/Hawthorn Rd (Caulfield North)","OBJECTID":250},"id":"PTV_METRO_TRAM_STOP.fid--47d7f0d7_17965b514c2_-65ef"},{"type":"Feature","geometry":{"type":"Point","coordinates":[145.02435588,-37.87493904]},"properties":{"STOP_ID":"19015","ROUTES_USING_STOP":"64","LONGITUDE":145.024356,"TICKETZONE":"1","LATITUDE":-37.874939,"STOP_NAME":"52-Halstead St\/Hawthorn Rd (Caulfield North)","OBJECTID":96},"id":"PTV_METRO_TRAM_STOP.fid--47d7f0d7_17965b514c2_-65f0"},{"type":"Feature","geometry":{"type":"Point","coordinates":[145.04047596,-37.88913204]},"properties":{"STOP_ID":"19078","ROUTES_USING_STOP":"67","LONGITUDE":145.040476,"TICKETZONE":"1","LATITUDE":-37.889132,"STOP_NAME":"60-Glenhuntly Shops\/Glenhuntly Rd (Caulfield East)","OBJECTID":155},"id":"PTV_METRO_TRAM_STOP.fid--47d7f0d7_17965b514c2_-65f1"},{"type":"Feature","geometry":{"type":"Point","coordinates":[145.04076684,-37.88930799]},"properties":{"STOP_ID":"18403","ROUTES_USING_STOP":"67","LONGITUDE":145.040767,"TICKETZONE":"1","LATITUDE":-37.889308,"STOP_NAME":"60-Glenhuntly Shops\/Glenhuntly Rd (Glen Huntly)","OBJECTID":225},"id":"PTV_METRO_TRAM_STOP.fid--47d7f0d7_17965b514c2_-65f2"},{"type":"Feature","geometry":{"type":"Point","coordinates":[145.04182416,-37.889307]},"properties":{"STOP_ID":"19079","ROUTES_USING_STOP":"67","LONGITUDE":145.041824,"TICKETZONE":"1","LATITUDE":-37.889307,"STOP_NAME":"61-Glenhuntly Railway Station\/Glenhuntly Rd (Caulfield South)","OBJECTID":156},"id":"PTV_METRO_TRAM_STOP.fid--47d7f0d7_17965b514c2_-65f3"},{"type":"Feature","geometry":{"type":"Point","coordinates":[145.04275008,-37.88954802]},"properties":{"STOP_ID":"18404","ROUTES_USING_STOP":"67","LONGITUDE":145.04275,"TICKETZONE":"1","LATITUDE":-37.889548,"STOP_NAME":"61-Glenhuntly Railway Station\/Glenhuntly Rd (Glen Huntly)","OBJECTID":226},"id":"PTV_METRO_TRAM_STOP.fid--47d7f0d7_17965b514c2_-65f4"},{"type":"Feature","geometry":{"type":"Point","coordinates":[145.02460392,-37.87288803]},"properties":{"STOP_ID":"18429","ROUTES_USING_STOP":"64","LONGITUDE":145.024604,"TICKETZONE":"1","LATITUDE":-37.872888,"STOP_NAME":"51-Balaclava Rd\/Hawthorn Rd (Caulfield North)","OBJECTID":251},"id":"PTV_METRO_TRAM_STOP.fid--47d7f0d7_17965b514c2_-65f5"},{"type":"Feature","geometry":{"type":"Point","coordinates":[145.02443004,-37.87256997]},"properties":{"STOP_ID":"18645","ROUTES_USING_STOP":"3\/3a,16","LONGITUDE":145.02443,"TICKETZONE":"1","LATITUDE":-37.87257,"STOP_NAME":"51-Hawthorn Rd\/Balaclava Rd (Caulfield North)","OBJECTID":749},"id":"PTV_METRO_TRAM_STOP.fid--47d7f0d7_17965b514c2_-65f6"},{"type":"Feature","geometry":{"type":"Point","coordinates":[145.024947,-37.87279497]},"properties":{"STOP_ID":"18464","ROUTES_USING_STOP":"3\/3a","LONGITUDE":145.024947,"TICKETZONE":"1","LATITUDE":-37.872795,"STOP_NAME":"51-Hawthorn Rd\/Balaclava Rd (Caulfield North)","OBJECTID":280},"id":"PTV_METRO_TRAM_STOP.fid--47d7f0d7_17965b514c2_-65f7"},{"type":"Feature","geometry":{"type":"Point","coordinates":[145.02481992,-37.872441]},"properties":{"STOP_ID":"19016","ROUTES_USING_STOP":"64,16","LONGITUDE":145.02482,"TICKETZONE":"1","LATITUDE":-37.872441,"STOP_NAME":"51-Balaclava Rd\/Hawthorn Rd (Caulfield North)","OBJECTID":97},"id":"PTV_METRO_TRAM_STOP.fid--47d7f0d7_17965b514c2_-65f8"},{"type":"Feature","geometry":{"type":"Point","coordinates":[145.04459004,-37.88963298]},"properties":{"STOP_ID":"19081","ROUTES_USING_STOP":"67","LONGITUDE":145.04459,"TICKETZONE":"1","LATITUDE":-37.889633,"STOP_NAME":"62-Grange Rd\/Glenhuntly Rd (Caulfield East)","OBJECTID":157},"id":"PTV_METRO_TRAM_STOP.fid--47d7f0d7_17965b514c2_-65f9"},{"type":"Feature","geometry":{"type":"Point","coordinates":[145.04504004,-37.889838]},"properties":{"STOP_ID":"18405","ROUTES_USING_STOP":"67","LONGITUDE":145.04504,"TICKETZONE":"1","LATITUDE":-37.889838,"STOP_NAME":"62-Grange Rd\/Glenhuntly Rd (Glen Huntly)","OBJECTID":227},"id":"PTV_METRO_TRAM_STOP.fid--47d7f0d7_17965b514c2_-65fa"},{"type":"Feature","geometry":{"type":"Point","coordinates":[145.02814416,-37.87313697]},"properties":{"STOP_ID":"18463","ROUTES_USING_STOP":"3\/3a","LONGITUDE":145.028144,"TICKETZONE":"1","LATITUDE":-37.873137,"STOP_NAME":"52-Caulfield Park Bowling Club\/Balaclava Rd (Caulfield North)","OBJECTID":279},"id":"PTV_METRO_TRAM_STOP.fid--47d7f0d7_17965b514c2_-65fb"},{"type":"Feature","geometry":{"type":"Point","coordinates":[145.04725512,-37.88993799]},"properties":{"STOP_ID":"19082","ROUTES_USING_STOP":"67","LONGITUDE":145.047255,"TICKETZONE":"1","LATITUDE":-37.889938,"STOP_NAME":"63-Maroona Rd\/Glenhuntly Rd (Carnegie)","OBJECTID":1103},"id":"PTV_METRO_TRAM_STOP.fid--47d7f0d7_17965b514c2_-65fc"},{"type":"Feature","geometry":{"type":"Point","coordinates":[145.02854412,-37.87308099]},"properties":{"STOP_ID":"18646","ROUTES_USING_STOP":"3\/3a","LONGITUDE":145.028544,"TICKETZONE":"1","LATITUDE":-37.873081,"STOP_NAME":"52-Caulfield Park Bowling Club\/Balaclava Rd (Caulfield North)","OBJECTID":750},"id":"PTV_METRO_TRAM_STOP.fid--47d7f0d7_17965b514c2_-65fd"},{"type":"Feature","geometry":{"type":"Point","coordinates":[145.04765796,-37.89014301]},"properties":{"STOP_ID":"18406","ROUTES_USING_STOP":"67","LONGITUDE":145.047658,"TICKETZONE":"1","LATITUDE":-37.890143,"STOP_NAME":"63-Maroona Rd\/Glenhuntly Rd (Carnegie)","OBJECTID":228},"id":"PTV_METRO_TRAM_STOP.fid--47d7f0d7_17965b514c2_-65fe"},{"type":"Feature","geometry":{"type":"Point","coordinates":[145.02518892,-37.86969897]},"properties":{"STOP_ID":"18430","ROUTES_USING_STOP":"64,16","LONGITUDE":145.025189,"TICKETZONE":"1","LATITUDE":-37.869699,"STOP_NAME":"50-Inkerman Rd\/Hawthorn Rd (Caulfield North)","OBJECTID":252},"id":"PTV_METRO_TRAM_STOP.fid--47d7f0d7_17965b514c2_-65ff"},{"type":"Feature","geometry":{"type":"Point","coordinates":[145.02540996,-37.86951402]},"properties":{"STOP_ID":"19017","ROUTES_USING_STOP":"64,16","LONGITUDE":145.02541,"TICKETZONE":"1","LATITUDE":-37.869514,"STOP_NAME":"50-Inkerman Rd\/Hawthorn Rd (Caulfield North)","OBJECTID":98},"id":"PTV_METRO_TRAM_STOP.fid--47d7f0d7_17965b514c2_-6600"},{"type":"Feature","geometry":{"type":"Point","coordinates":[145.04948712,-37.89023697]},"properties":{"STOP_ID":"19083","ROUTES_USING_STOP":"67","LONGITUDE":145.049487,"TICKETZONE":"1","LATITUDE":-37.890237,"STOP_NAME":"64-Mernda Ave\/Glenhuntly Rd (Carnegie)","OBJECTID":1104},"id":"PTV_METRO_TRAM_STOP.fid--47d7f0d7_17965b514c2_-6601"},{"type":"Feature","geometry":{"type":"Point","coordinates":[145.04990292,-37.89040599]},"properties":{"STOP_ID":"18407","ROUTES_USING_STOP":"67","LONGITUDE":145.049903,"TICKETZONE":"1","LATITUDE":-37.890406,"STOP_NAME":"64-Mernda Ave\/Glenhuntly Rd (Carnegie)","OBJECTID":229},"id":"PTV_METRO_TRAM_STOP.fid--47d7f0d7_17965b514c2_-6602"},{"type":"Feature","geometry":{"type":"Point","coordinates":[145.03125204,-37.87339599]},"properties":{"STOP_ID":"18647","ROUTES_USING_STOP":"3\/3a","LONGITUDE":145.031252,"TICKETZONE":"1","LATITUDE":-37.873396,"STOP_NAME":"53-Caulfield Park\/Balaclava Rd (Caulfield North)","OBJECTID":751},"id":"PTV_METRO_TRAM_STOP.fid--47d7f0d7_17965b514c2_-6603"},{"type":"Feature","geometry":{"type":"Point","coordinates":[145.03204116,-37.87364403]},"properties":{"STOP_ID":"18462","ROUTES_USING_STOP":"3\/3a","LONGITUDE":145.032041,"TICKETZONE":"1","LATITUDE":-37.873644,"STOP_NAME":"53-Caulfield Park\/Balaclava Rd (Caulfield North)","OBJECTID":278},"id":"PTV_METRO_TRAM_STOP.fid--47d7f0d7_17965b514c2_-6604"},{"type":"Feature","geometry":{"type":"Point","coordinates":[145.05175404,-37.89051696]},"properties":{"STOP_ID":"19084","ROUTES_USING_STOP":"67","LONGITUDE":145.051754,"TICKETZONE":"1","LATITUDE":-37.890517,"STOP_NAME":"65-Mimosa Rd\/Glenhuntly Rd (Carnegie)","OBJECTID":1105},"id":"PTV_METRO_TRAM_STOP.fid--47d7f0d7_17965b514c2_-6605"},{"type":"Feature","geometry":{"type":"Point","coordinates":[145.05436908,-37.89269703]},"properties":{"STOP_ID":"18410","ROUTES_USING_STOP":"67","LONGITUDE":145.054369,"TICKETZONE":"1","LATITUDE":-37.892697,"STOP_NAME":"67-Centre Rd\/Truganini Rd (Carnegie)","OBJECTID":232},"id":"PTV_METRO_TRAM_STOP.fid--47d7f0d7_17965b514c2_-6606"},{"type":"Feature","geometry":{"type":"Point","coordinates":[145.05219216,-37.89071397]},"properties":{"STOP_ID":"18408","ROUTES_USING_STOP":"67","LONGITUDE":145.052192,"TICKETZONE":"1","LATITUDE":-37.890714,"STOP_NAME":"65-Mimosa Rd\/Glenhuntly Rd (Carnegie)","OBJECTID":230},"id":"PTV_METRO_TRAM_STOP.fid--47d7f0d7_17965b514c2_-6607"},{"type":"Feature","geometry":{"type":"Point","coordinates":[145.05580512,-37.89386496]},"properties":{"STOP_ID":"18411","ROUTES_USING_STOP":"67","LONGITUDE":145.055805,"TICKETZONE":"1","LATITUDE":-37.893865,"STOP_NAME":"68-Carnegie\/Truganini Rd (Carnegie)","OBJECTID":233},"id":"PTV_METRO_TRAM_STOP.fid--47d7f0d7_17965b514c2_-6608"},{"type":"Feature","geometry":{"type":"Point","coordinates":[145.05449508,-37.89265401]},"properties":{"STOP_ID":"19086","ROUTES_USING_STOP":"67","LONGITUDE":145.054495,"TICKETZONE":"1","LATITUDE":-37.892654,"STOP_NAME":"67-Centre Rd\/Truganini Rd (Carnegie)","OBJECTID":1107},"id":"PTV_METRO_TRAM_STOP.fid--47d7f0d7_17965b514c2_-6609"},{"type":"Feature","geometry":{"type":"Point","coordinates":[145.05404796,-37.89106902]},"properties":{"STOP_ID":"18409","ROUTES_USING_STOP":"67","LONGITUDE":145.054048,"TICKETZONE":"1","LATITUDE":-37.891069,"STOP_NAME":"66-Glenhuntly Rd\/Truganini Rd (Carnegie)","OBJECTID":231},"id":"PTV_METRO_TRAM_STOP.fid--47d7f0d7_17965b514c2_-660a"},{"type":"Feature","geometry":{"type":"Point","coordinates":[145.05406596,-37.89078102]},"properties":{"STOP_ID":"19085","ROUTES_USING_STOP":"67","LONGITUDE":145.054066,"TICKETZONE":"1","LATITUDE":-37.890781,"STOP_NAME":"66-Truganini Rd\/Glenhuntly Rd (Carnegie)","OBJECTID":1106},"id":"PTV_METRO_TRAM_STOP.fid--47d7f0d7_17965b514c2_-660b"},{"type":"Feature","geometry":{"type":"Point","coordinates":[145.035819,-37.87395903]},"properties":{"STOP_ID":"18648","ROUTES_USING_STOP":"3\/3a","LONGITUDE":145.035819,"TICKETZONE":"1","LATITUDE":-37.873959,"STOP_NAME":"54-Kambrook Rd\/Balaclava Rd (Caulfield North)","OBJECTID":752},"id":"PTV_METRO_TRAM_STOP.fid--47d7f0d7_17965b514c2_-660c"},{"type":"Feature","geometry":{"type":"Point","coordinates":[145.03613184,-37.87414497]},"properties":{"STOP_ID":"18461","ROUTES_USING_STOP":"3\/3a","LONGITUDE":145.036132,"TICKETZONE":"1","LATITUDE":-37.874145,"STOP_NAME":"54-Kambrook Rd\/Balaclava Rd (Caulfield East)","OBJECTID":277},"id":"PTV_METRO_TRAM_STOP.fid--47d7f0d7_17965b514c2_-660d"},{"type":"Feature","geometry":{"type":"Point","coordinates":[145.0377,-37.87419798]},"properties":{"STOP_ID":"18649","ROUTES_USING_STOP":"3\/3a","LONGITUDE":145.0377,"TICKETZONE":"1","LATITUDE":-37.874198,"STOP_NAME":"55-Normanby Rd\/Balaclava Rd (Caulfield North)","OBJECTID":753},"id":"PTV_METRO_TRAM_STOP.fid--47d7f0d7_17965b514c2_-660e"},{"type":"Feature","geometry":{"type":"Point","coordinates":[145.03813488,-37.87449399]},"properties":{"STOP_ID":"18460","ROUTES_USING_STOP":"3\/3a","LONGITUDE":145.038135,"TICKETZONE":"1","LATITUDE":-37.874494,"STOP_NAME":"55-Balaclava Rd\/Normanby Rd (Caulfield East)","OBJECTID":276},"id":"PTV_METRO_TRAM_STOP.fid--47d7f0d7_17965b514c2_-660f"},{"type":"Feature","geometry":{"type":"Point","coordinates":[145.03910184,-37.875357]},"properties":{"STOP_ID":"18459","ROUTES_USING_STOP":"3\/3a","LONGITUDE":145.039102,"TICKETZONE":"1","LATITUDE":-37.875357,"STOP_NAME":"56-Caulfield Racecourse\/Normanby Rd (Caulfield East)","OBJECTID":275},"id":"PTV_METRO_TRAM_STOP.fid--47d7f0d7_17965b514c2_-6610"},{"type":"Feature","geometry":{"type":"Point","coordinates":[145.03939596,-37.87541604]},"properties":{"STOP_ID":"18650","ROUTES_USING_STOP":"3\/3a","LONGITUDE":145.039396,"TICKETZONE":"1","LATITUDE":-37.875416,"STOP_NAME":"56-Caulfield Racecourse\/Normanby Rd (Caulfield North)","OBJECTID":754},"id":"PTV_METRO_TRAM_STOP.fid--47d7f0d7_17965b514c2_-6611"},{"type":"Feature","geometry":{"type":"Point","coordinates":[145.04167692,-37.87640001]},"properties":{"STOP_ID":"18651","ROUTES_USING_STOP":"3\/3a","LONGITUDE":145.041677,"TICKETZONE":"1","LATITUDE":-37.8764,"STOP_NAME":"57-Caulfield Railway Station\/Derby Rd (Caulfield East)","OBJECTID":755},"id":"PTV_METRO_TRAM_STOP.fid--47d7f0d7_17965b514c2_-6612"},{"type":"Feature","geometry":{"type":"Point","coordinates":[145.041939,-37.87640397]},"properties":{"STOP_ID":"18457","ROUTES_USING_STOP":"3\/3a","LONGITUDE":145.041939,"TICKETZONE":"1","LATITUDE":-37.876404,"STOP_NAME":"57-Caulfield Railway Station\/Derby Rd (Caulfield East)","OBJECTID":274},"id":"PTV_METRO_TRAM_STOP.fid--47d7f0d7_17965b514c2_-6613"},{"type":"Feature","geometry":{"type":"Point","coordinates":[145.04186592,-37.87570899]},"properties":{"STOP_ID":"18652","ROUTES_USING_STOP":"3\/3a","LONGITUDE":145.041866,"TICKETZONE":"1","LATITUDE":-37.875709,"STOP_NAME":"58-Dandenong Rd\/Derby Rd (Caulfield North)","OBJECTID":756},"id":"PTV_METRO_TRAM_STOP.fid--47d7f0d7_17965b514c2_-6614"},{"type":"Feature","geometry":{"type":"Point","coordinates":[145.04494608,-37.87576002]},"properties":{"STOP_ID":"18653","ROUTES_USING_STOP":"3\/3a","LONGITUDE":145.044946,"TICKETZONE":"1","LATITUDE":-37.87576,"STOP_NAME":"59-Dandenong Rd\/Waverley Rd (Malvern East)","OBJECTID":757},"id":"PTV_METRO_TRAM_STOP.fid--47d7f0d7_17965b514c2_-6615"},{"type":"Feature","geometry":{"type":"Point","coordinates":[145.04506884,-37.87584399]},"properties":{"STOP_ID":"18456","ROUTES_USING_STOP":"3\/3a","LONGITUDE":145.045069,"TICKETZONE":"1","LATITUDE":-37.875844,"STOP_NAME":"59-Dandenong Rd\/Waverley Rd (Caulfield East)","OBJECTID":273},"id":"PTV_METRO_TRAM_STOP.fid--47d7f0d7_17965b514c2_-6616"},{"type":"Feature","geometry":{"type":"Point","coordinates":[145.04804604,-37.87589304]},"properties":{"STOP_ID":"18654","ROUTES_USING_STOP":"3\/3a","LONGITUDE":145.048046,"TICKETZONE":"1","LATITUDE":-37.875893,"STOP_NAME":"60-Burke Rd\/Waverley Rd (Malvern East)","OBJECTID":758},"id":"PTV_METRO_TRAM_STOP.fid--47d7f0d7_17965b514c2_-6617"},{"type":"Feature","geometry":{"type":"Point","coordinates":[145.04832612,-37.87605099]},"properties":{"STOP_ID":"18455","ROUTES_USING_STOP":"3\/3a","LONGITUDE":145.048326,"TICKETZONE":"1","LATITUDE":-37.876051,"STOP_NAME":"60-Burke Rd\/Waverley Rd (Malvern East)","OBJECTID":272},"id":"PTV_METRO_TRAM_STOP.fid--47d7f0d7_17965b514c2_-6618"},{"type":"Feature","geometry":{"type":"Point","coordinates":[145.05093612,-37.87624701]},"properties":{"STOP_ID":"18655","ROUTES_USING_STOP":"3\/3a","LONGITUDE":145.050936,"TICKETZONE":"1","LATITUDE":-37.876247,"STOP_NAME":"61-Tennyson St\/Waverley Rd (Malvern East)","OBJECTID":759},"id":"PTV_METRO_TRAM_STOP.fid--47d7f0d7_17965b514c2_-6619"},{"type":"Feature","geometry":{"type":"Point","coordinates":[145.05108012,-37.87637598]},"properties":{"STOP_ID":"18454","ROUTES_USING_STOP":"3\/3a","LONGITUDE":145.05108,"TICKETZONE":"1","LATITUDE":-37.876376,"STOP_NAME":"61-Tennyson St\/Waverley Rd (Malvern East)","OBJECTID":271},"id":"PTV_METRO_TRAM_STOP.fid--47d7f0d7_17965b514c2_-661a"},{"type":"Feature","geometry":{"type":"Point","coordinates":[145.05468696,-37.87669701]},"properties":{"STOP_ID":"18656","ROUTES_USING_STOP":"3\/3a","LONGITUDE":145.054687,"TICKETZONE":"1","LATITUDE":-37.876697,"STOP_NAME":"62-The Avenue\/Waverley Rd (Malvern East)","OBJECTID":760},"id":"PTV_METRO_TRAM_STOP.fid--47d7f0d7_17965b514c2_-661b"},{"type":"Feature","geometry":{"type":"Point","coordinates":[145.05500088,-37.87687296]},"properties":{"STOP_ID":"18453","ROUTES_USING_STOP":"3\/3a","LONGITUDE":145.055001,"TICKETZONE":"1","LATITUDE":-37.876873,"STOP_NAME":"62-Macgregor St\/Waverley Rd (Malvern East)","OBJECTID":270},"id":"PTV_METRO_TRAM_STOP.fid--47d7f0d7_17965b514c2_-661c"},{"type":"Feature","geometry":{"type":"Point","coordinates":[145.056546,-37.87691697]},"properties":{"STOP_ID":"18657","ROUTES_USING_STOP":"3\/3a","LONGITUDE":145.056546,"TICKETZONE":"1","LATITUDE":-37.876917,"STOP_NAME":"63-Oak Gr\/Waverley Rd (Malvern East)","OBJECTID":761},"id":"PTV_METRO_TRAM_STOP.fid--47d7f0d7_17965b514c2_-661d"},{"type":"Feature","geometry":{"type":"Point","coordinates":[145.05690492,-37.877103]},"properties":{"STOP_ID":"18452","ROUTES_USING_STOP":"3\/3a","LONGITUDE":145.056905,"TICKETZONE":"1","LATITUDE":-37.877103,"STOP_NAME":"63-Hughes St\/Waverley Rd (Malvern East)","OBJECTID":269},"id":"PTV_METRO_TRAM_STOP.fid--47d7f0d7_17965b514c2_-661e"},{"type":"Feature","geometry":{"type":"Point","coordinates":[145.05876504,-37.87726896]},"properties":{"STOP_ID":"18451","ROUTES_USING_STOP":"3\/3a","LONGITUDE":145.058765,"TICKETZONE":"1","LATITUDE":-37.877269,"STOP_NAME":"64-Darling Rd\/Waverley Rd (Malvern East)","OBJECTID":268},"id":"PTV_METRO_TRAM_STOP.fid--47d7f0d7_17965b514c2_-661f"},{"type":"Feature","geometry":{"type":"Point","coordinates":[145.05954192,-37.81599201]},"properties":{"STOP_ID":"18971","ROUTES_USING_STOP":"72","LONGITUDE":145.059542,"TICKETZONE":"1","LATITUDE":-37.815992,"STOP_NAME":"68-Mont Albert Rd\/Burke Rd (Kew)","OBJECTID":64},"id":"PTV_METRO_TRAM_STOP.fid--47d7f0d7_17965b514c2_-6620"},{"type":"Feature","geometry":{"type":"Point","coordinates":[145.05976512,-37.81574298]},"properties":{"STOP_ID":"19038","ROUTES_USING_STOP":"72","LONGITUDE":145.059765,"TICKETZONE":"1","LATITUDE":-37.815743,"STOP_NAME":"68-Mont Albert Rd\/Burke Rd (Camberwell)","OBJECTID":116},"id":"PTV_METRO_TRAM_STOP.fid--47d7f0d7_17965b514c2_-6621"},{"type":"Feature","geometry":{"type":"Point","coordinates":[145.05305508,-37.80952299]},"properties":{"STOP_ID":"19752","ROUTES_USING_STOP":"109","LONGITUDE":145.053055,"TICKETZONE":"1","LATITUDE":-37.809523,"STOP_NAME":"40-St George's Hospital\/Cotham Rd (Kew)","OBJECTID":850},"id":"PTV_METRO_TRAM_STOP.fid--47d7f0d7_17965b514c2_-6622"},{"type":"Feature","geometry":{"type":"Point","coordinates":[145.05291108,-37.80937602]},"properties":{"STOP_ID":"19402","ROUTES_USING_STOP":"109","LONGITUDE":145.052911,"TICKETZONE":"1","LATITUDE":-37.809376,"STOP_NAME":"40-St George's Hospital\/Cotham Rd (Kew)","OBJECTID":1272},"id":"PTV_METRO_TRAM_STOP.fid--47d7f0d7_17965b514c2_-6623"},{"type":"Feature","geometry":{"type":"Point","coordinates":[145.05987492,-37.81413198]},"properties":{"STOP_ID":"18972","ROUTES_USING_STOP":"72","LONGITUDE":145.059875,"TICKETZONE":"1","LATITUDE":-37.814132,"STOP_NAME":"69-Sackville St\/Burke Rd (Kew)","OBJECTID":65},"id":"PTV_METRO_TRAM_STOP.fid--47d7f0d7_17965b514c2_-6624"},{"type":"Feature","geometry":{"type":"Point","coordinates":[145.06006896,-37.81410804]},"properties":{"STOP_ID":"19037","ROUTES_USING_STOP":"72","LONGITUDE":145.060069,"TICKETZONE":"1","LATITUDE":-37.814108,"STOP_NAME":"69-Peverill St\/Burke Rd (Balwyn)","OBJECTID":115},"id":"PTV_METRO_TRAM_STOP.fid--47d7f0d7_17965b514c2_-6625"},{"type":"Feature","geometry":{"type":"Point","coordinates":[145.04598108,-37.80125901]},"properties":{"STOP_ID":"18351","ROUTES_USING_STOP":"48","LONGITUDE":145.045981,"TICKETZONE":"1","LATITUDE":-37.801259,"STOP_NAME":"38-Victoria Park\/High St (Kew)","OBJECTID":190},"id":"PTV_METRO_TRAM_STOP.fid--47d7f0d7_17965b514c2_-6626"},{"type":"Feature","geometry":{"type":"Point","coordinates":[145.04617188,-37.80131598]},"properties":{"STOP_ID":"18579","ROUTES_USING_STOP":"48","LONGITUDE":145.046172,"TICKETZONE":"1","LATITUDE":-37.801316,"STOP_NAME":"38-Victoria Park\/High St (Kew East)","OBJECTID":698},"id":"PTV_METRO_TRAM_STOP.fid--47d7f0d7_17965b514c2_-6627"},{"type":"Feature","geometry":{"type":"Point","coordinates":[145.05766812,-37.80993204]},"properties":{"STOP_ID":"19403","ROUTES_USING_STOP":"109","LONGITUDE":145.057668,"TICKETZONE":"1","LATITUDE":-37.809932,"STOP_NAME":"41-Kew Traffic School\/Cotham Rd (Kew)","OBJECTID":1273},"id":"PTV_METRO_TRAM_STOP.fid--47d7f0d7_17965b514c2_-6628"},{"type":"Feature","geometry":{"type":"Point","coordinates":[145.05787908,-37.810098]},"properties":{"STOP_ID":"19753","ROUTES_USING_STOP":"109","LONGITUDE":145.057879,"TICKETZONE":"1","LATITUDE":-37.810098,"STOP_NAME":"41-Kew Traffic School\/Cotham Rd (Kew)","OBJECTID":851},"id":"PTV_METRO_TRAM_STOP.fid--47d7f0d7_17965b514c2_-6629"},{"type":"Feature","geometry":{"type":"Point","coordinates":[145.060596,-37.81087299]},"properties":{"STOP_ID":"19036","ROUTES_USING_STOP":"72","LONGITUDE":145.060596,"TICKETZONE":"1","LATITUDE":-37.810873,"STOP_NAME":"70-Cotham Rd\/Burke Rd (Kew)","OBJECTID":114},"id":"PTV_METRO_TRAM_STOP.fid--47d7f0d7_17965b514c2_-662a"},{"type":"Feature","geometry":{"type":"Point","coordinates":[145.06049808,-37.81027602]},"properties":{"STOP_ID":"19404","ROUTES_USING_STOP":"109","LONGITUDE":145.060498,"TICKETZONE":"1","LATITUDE":-37.810276,"STOP_NAME":"42-Burke Rd\/Cotham Rd (Kew)","OBJECTID":1274},"id":"PTV_METRO_TRAM_STOP.fid--47d7f0d7_17965b514c2_-662b"},{"type":"Feature","geometry":{"type":"Point","coordinates":[145.060857,-37.81044396]},"properties":{"STOP_ID":"19778","ROUTES_USING_STOP":"109","LONGITUDE":145.060857,"TICKETZONE":"1","LATITUDE":-37.810444,"STOP_NAME":"42-Burke Rd\/Whitehorse Rd (Balwyn)","OBJECTID":876},"id":"PTV_METRO_TRAM_STOP.fid--47d7f0d7_17965b514c2_-662c"},{"type":"Feature","geometry":{"type":"Point","coordinates":[145.050273,-37.79956404]},"properties":{"STOP_ID":"18578","ROUTES_USING_STOP":"48","LONGITUDE":145.050273,"TICKETZONE":"1","LATITUDE":-37.799564,"STOP_NAME":"39-Harp Rd\/High St (Kew East)","OBJECTID":697},"id":"PTV_METRO_TRAM_STOP.fid--47d7f0d7_17965b514c2_-662d"},{"type":"Feature","geometry":{"type":"Point","coordinates":[145.05043608,-37.79941302]},"properties":{"STOP_ID":"18352","ROUTES_USING_STOP":"48","LONGITUDE":145.050436,"TICKETZONE":"1","LATITUDE":-37.799413,"STOP_NAME":"39-Harp Rd\/High St (Kew)","OBJECTID":191},"id":"PTV_METRO_TRAM_STOP.fid--47d7f0d7_17965b514c2_-662e"},{"type":"Feature","geometry":{"type":"Point","coordinates":[145.06472196,-37.81078704]},"properties":{"STOP_ID":"19405","ROUTES_USING_STOP":"109","LONGITUDE":145.064722,"TICKETZONE":"1","LATITUDE":-37.810787,"STOP_NAME":"43-Deepdene Shopping Centre\/Whitehorse Rd (Balwyn)","OBJECTID":1275},"id":"PTV_METRO_TRAM_STOP.fid--47d7f0d7_17965b514c2_-662f"},{"type":"Feature","geometry":{"type":"Point","coordinates":[145.06487712,-37.81092501]},"properties":{"STOP_ID":"18710","ROUTES_USING_STOP":"109","LONGITUDE":145.064877,"TICKETZONE":"1","LATITUDE":-37.810925,"STOP_NAME":"43-Deepdene Shopping Centre\/Whitehorse Rd (Balwyn)","OBJECTID":778},"id":"PTV_METRO_TRAM_STOP.fid--47d7f0d7_17965b514c2_-6630"},{"type":"Feature","geometry":{"type":"Point","coordinates":[145.05202404,-37.79862804]},"properties":{"STOP_ID":"18353","ROUTES_USING_STOP":"48","LONGITUDE":145.052024,"TICKETZONE":"1","LATITUDE":-37.798628,"STOP_NAME":"40-Harp Village\/High St (Kew East)","OBJECTID":192},"id":"PTV_METRO_TRAM_STOP.fid--47d7f0d7_17965b514c2_-6631"},{"type":"Feature","geometry":{"type":"Point","coordinates":[145.05219216,-37.79872101]},"properties":{"STOP_ID":"18577","ROUTES_USING_STOP":"48","LONGITUDE":145.052192,"TICKETZONE":"1","LATITUDE":-37.798721,"STOP_NAME":"40-Harp Village\/High St (Kew East)","OBJECTID":696},"id":"PTV_METRO_TRAM_STOP.fid--47d7f0d7_17965b514c2_-6632"},{"type":"Feature","geometry":{"type":"Point","coordinates":[145.06867116,-37.81137501]},"properties":{"STOP_ID":"18732","ROUTES_USING_STOP":"109","LONGITUDE":145.068671,"TICKETZONE":"1","LATITUDE":-37.811375,"STOP_NAME":"44-Deepdene Park\/Whitehorse Rd (Balwyn)","OBJECTID":2},"id":"PTV_METRO_TRAM_STOP.fid--47d7f0d7_17965b514c2_-6633"},{"type":"Feature","geometry":{"type":"Point","coordinates":[145.06852716,-37.81123704]},"properties":{"STOP_ID":"19406","ROUTES_USING_STOP":"109","LONGITUDE":145.068527,"TICKETZONE":"1","LATITUDE":-37.811237,"STOP_NAME":"44-Deepdene Park\/Whitehorse Rd (Balwyn)","OBJECTID":1276},"id":"PTV_METRO_TRAM_STOP.fid--47d7f0d7_17965b514c2_-6634"},{"type":"Feature","geometry":{"type":"Point","coordinates":[145.053927,-37.797966]},"properties":{"STOP_ID":"18576","ROUTES_USING_STOP":"48","LONGITUDE":145.053927,"TICKETZONE":"1","LATITUDE":-37.797966,"STOP_NAME":"41-Station St\/High St (Kew East)","OBJECTID":695},"id":"PTV_METRO_TRAM_STOP.fid--47d7f0d7_17965b514c2_-6635"},{"type":"Feature","geometry":{"type":"Point","coordinates":[145.05475788,-37.79743896]},"properties":{"STOP_ID":"18354","ROUTES_USING_STOP":"48","LONGITUDE":145.054758,"TICKETZONE":"1","LATITUDE":-37.797439,"STOP_NAME":"41-Clyde St\/High St (Kew East)","OBJECTID":193},"id":"PTV_METRO_TRAM_STOP.fid--47d7f0d7_17965b514c2_-6636"},{"type":"Feature","geometry":{"type":"Point","coordinates":[145.07138016,-37.81159101]},"properties":{"STOP_ID":"19407","ROUTES_USING_STOP":"109","LONGITUDE":145.07138,"TICKETZONE":"1","LATITUDE":-37.811591,"STOP_NAME":"45-Hardwicke St\/Whitehorse Rd (Balwyn)","OBJECTID":1277},"id":"PTV_METRO_TRAM_STOP.fid--47d7f0d7_17965b514c2_-6637"},{"type":"Feature","geometry":{"type":"Point","coordinates":[145.07178516,-37.81175004]},"properties":{"STOP_ID":"18733","ROUTES_USING_STOP":"109","LONGITUDE":145.071785,"TICKETZONE":"1","LATITUDE":-37.81175,"STOP_NAME":"45-Hardwicke St\/Whitehorse Rd (Balwyn)","OBJECTID":3},"id":"PTV_METRO_TRAM_STOP.fid--47d7f0d7_17965b514c2_-6638"},{"type":"Feature","geometry":{"type":"Point","coordinates":[145.05715908,-37.79639703]},"properties":{"STOP_ID":"18355","ROUTES_USING_STOP":"48","LONGITUDE":145.057159,"TICKETZONE":"1","LATITUDE":-37.796397,"STOP_NAME":"42-Irymple Ave\/High St (Kew East)","OBJECTID":194},"id":"PTV_METRO_TRAM_STOP.fid--47d7f0d7_17965b514c2_-6639"},{"type":"Feature","geometry":{"type":"Point","coordinates":[145.05767208,-37.79632404]},"properties":{"STOP_ID":"18575","ROUTES_USING_STOP":"48","LONGITUDE":145.057672,"TICKETZONE":"1","LATITUDE":-37.796324,"STOP_NAME":"42-Woodlands Ave\/High St (Kew East)","OBJECTID":694},"id":"PTV_METRO_TRAM_STOP.fid--47d7f0d7_17965b514c2_-663a"},{"type":"Feature","geometry":{"type":"Point","coordinates":[145.07578512,-37.81211301]},"properties":{"STOP_ID":"19408","ROUTES_USING_STOP":"109","LONGITUDE":145.075785,"TICKETZONE":"1","LATITUDE":-37.812113,"STOP_NAME":"46-Balwyn Cinema\/Whitehorse Rd (Balwyn)","OBJECTID":1278},"id":"PTV_METRO_TRAM_STOP.fid--47d7f0d7_17965b514c2_-663b"},{"type":"Feature","geometry":{"type":"Point","coordinates":[145.07592984,-37.81224198]},"properties":{"STOP_ID":"18734","ROUTES_USING_STOP":"109","LONGITUDE":145.07593,"TICKETZONE":"1","LATITUDE":-37.812242,"STOP_NAME":"46-Balwyn Cinema\/Whitehorse Rd (Balwyn)","OBJECTID":4},"id":"PTV_METRO_TRAM_STOP.fid--47d7f0d7_17965b514c2_-663c"},{"type":"Feature","geometry":{"type":"Point","coordinates":[145.08118692,-37.81276902]},"properties":{"STOP_ID":"19409","ROUTES_USING_STOP":"109","LONGITUDE":145.081187,"TICKETZONE":"1,2","LATITUDE":-37.812769,"STOP_NAME":"47-Balwyn Rd\/Whitehorse Rd (Balwyn)","OBJECTID":1279},"id":"PTV_METRO_TRAM_STOP.fid--47d7f0d7_17965b514c2_-663d"},{"type":"Feature","geometry":{"type":"Point","coordinates":[145.06108884,-37.79465004]},"properties":{"STOP_ID":"18356","ROUTES_USING_STOP":"48","LONGITUDE":145.061089,"TICKETZONE":"1","LATITUDE":-37.79465,"STOP_NAME":"43-Kew High School\/High St (Kew East)","OBJECTID":195},"id":"PTV_METRO_TRAM_STOP.fid--47d7f0d7_17965b514c2_-663e"},{"type":"Feature","geometry":{"type":"Point","coordinates":[145.08152388,-37.81291896]},"properties":{"STOP_ID":"18735","ROUTES_USING_STOP":"109","LONGITUDE":145.081524,"TICKETZONE":"1,2","LATITUDE":-37.812919,"STOP_NAME":"47-Balwyn Rd\/Whitehorse Rd (Balwyn)","OBJECTID":5},"id":"PTV_METRO_TRAM_STOP.fid--47d7f0d7_17965b514c2_-663f"},{"type":"Feature","geometry":{"type":"Point","coordinates":[145.06134912,-37.79469999]},"properties":{"STOP_ID":"18574","ROUTES_USING_STOP":"48","LONGITUDE":145.061349,"TICKETZONE":"1","LATITUDE":-37.7947,"STOP_NAME":"43-Kew High School\/High St (Kew East)","OBJECTID":693},"id":"PTV_METRO_TRAM_STOP.fid--47d7f0d7_17965b514c2_-6640"},{"type":"Feature","geometry":{"type":"Point","coordinates":[145.08362196,-37.81306098]},"properties":{"STOP_ID":"19410","ROUTES_USING_STOP":"109","LONGITUDE":145.083622,"TICKETZONE":"1,2","LATITUDE":-37.813061,"STOP_NAME":"48-Balwyn Shopping Centre\/Whitehorse Rd (Balwyn)","OBJECTID":1280},"id":"PTV_METRO_TRAM_STOP.fid--47d7f0d7_17965b514c2_-6641"},{"type":"Feature","geometry":{"type":"Point","coordinates":[145.08378792,-37.81319904]},"properties":{"STOP_ID":"18736","ROUTES_USING_STOP":"109","LONGITUDE":145.083788,"TICKETZONE":"1,2","LATITUDE":-37.813199,"STOP_NAME":"48-Balwyn Shopping Centre\/Whitehorse Rd (Balwyn)","OBJECTID":6},"id":"PTV_METRO_TRAM_STOP.fid--47d7f0d7_17965b514c2_-6642"},{"type":"Feature","geometry":{"type":"Point","coordinates":[145.06366212,-37.79352999]},"properties":{"STOP_ID":"18357","ROUTES_USING_STOP":"48","LONGITUDE":145.063662,"TICKETZONE":"1","LATITUDE":-37.79353,"STOP_NAME":"44-Burke Rd\/High St (Kew)","OBJECTID":196},"id":"PTV_METRO_TRAM_STOP.fid--47d7f0d7_17965b514c2_-6643"},{"type":"Feature","geometry":{"type":"Point","coordinates":[145.06426512,-37.79346798]},"properties":{"STOP_ID":"20895","ROUTES_USING_STOP":"48","LONGITUDE":145.064265,"TICKETZONE":"1","LATITUDE":-37.793468,"STOP_NAME":"44-Burke Rd\/Doncaster Rd (Balwyn North)","OBJECTID":995},"id":"PTV_METRO_TRAM_STOP.fid--47d7f0d7_17965b514c2_-6644"},{"type":"Feature","geometry":{"type":"Point","coordinates":[145.06521588,-37.79316801]},"properties":{"STOP_ID":"18358","ROUTES_USING_STOP":"48","LONGITUDE":145.065216,"TICKETZONE":"1","LATITUDE":-37.793168,"STOP_NAME":"45-Burke Rd\/Doncaster Rd (Balwyn North)","OBJECTID":197},"id":"PTV_METRO_TRAM_STOP.fid--47d7f0d7_17965b514c2_-6645"},{"type":"Feature","geometry":{"type":"Point","coordinates":[145.06740108,-37.79300601]},"properties":{"STOP_ID":"18571","ROUTES_USING_STOP":"48","LONGITUDE":145.067401,"TICKETZONE":"1","LATITUDE":-37.793006,"STOP_NAME":"46-Wattle Ave\/Doncaster Rd (Balwyn North)","OBJECTID":691},"id":"PTV_METRO_TRAM_STOP.fid--47d7f0d7_17965b514c2_-6646"},{"type":"Feature","geometry":{"type":"Point","coordinates":[145.06745004,-37.79283501]},"properties":{"STOP_ID":"18359","ROUTES_USING_STOP":"48","LONGITUDE":145.06745,"TICKETZONE":"1","LATITUDE":-37.792835,"STOP_NAME":"46-Wattle Ave\/Doncaster Rd (Balwyn North)","OBJECTID":198},"id":"PTV_METRO_TRAM_STOP.fid--47d7f0d7_17965b514c2_-6647"},{"type":"Feature","geometry":{"type":"Point","coordinates":[145.07072388,-37.79272701]},"properties":{"STOP_ID":"18570","ROUTES_USING_STOP":"48","LONGITUDE":145.070724,"TICKETZONE":"1","LATITUDE":-37.792727,"STOP_NAME":"47-North Balwyn Shopping Centre\/Doncaster Rd (Balwyn North)","OBJECTID":690},"id":"PTV_METRO_TRAM_STOP.fid--47d7f0d7_17965b514c2_-6648"},{"type":"Feature","geometry":{"type":"Point","coordinates":[145.07143992,-37.79271198]},"properties":{"STOP_ID":"18360","ROUTES_USING_STOP":"48","LONGITUDE":145.07144,"TICKETZONE":"1","LATITUDE":-37.792712,"STOP_NAME":"47-North Balwyn Shopping Centre\/Doncaster Rd (Balwyn North)","OBJECTID":199},"id":"PTV_METRO_TRAM_STOP.fid--47d7f0d7_17965b514c2_-6649"},{"type":"Feature","geometry":{"type":"Point","coordinates":[145.07426592,-37.79321697]},"properties":{"STOP_ID":"18361","ROUTES_USING_STOP":"48","LONGITUDE":145.074266,"TICKETZONE":"1","LATITUDE":-37.793217,"STOP_NAME":"48-Sunburst Ave\/Doncaster Rd (Balwyn North)","OBJECTID":200},"id":"PTV_METRO_TRAM_STOP.fid--47d7f0d7_17965b514c2_-664a"},{"type":"Feature","geometry":{"type":"Point","coordinates":[145.07456688,-37.793412]},"properties":{"STOP_ID":"18569","ROUTES_USING_STOP":"48","LONGITUDE":145.074567,"TICKETZONE":"1","LATITUDE":-37.793412,"STOP_NAME":"48-Osburn Ave\/Doncaster Rd (Balwyn North)","OBJECTID":689},"id":"PTV_METRO_TRAM_STOP.fid--47d7f0d7_17965b514c2_-664b"},{"type":"Feature","geometry":{"type":"Point","coordinates":[145.07746596,-37.79375598]},"properties":{"STOP_ID":"18362","ROUTES_USING_STOP":"48","LONGITUDE":145.077466,"TICKETZONE":"1","LATITUDE":-37.793756,"STOP_NAME":"49-Cityview Rd\/Doncaster Rd (Balwyn North)","OBJECTID":201},"id":"PTV_METRO_TRAM_STOP.fid--47d7f0d7_17965b514c2_-664c"},{"type":"Feature","geometry":{"type":"Point","coordinates":[145.07772192,-37.79394102]},"properties":{"STOP_ID":"18568","ROUTES_USING_STOP":"48","LONGITUDE":145.077722,"TICKETZONE":"1","LATITUDE":-37.793941,"STOP_NAME":"49-Buchanan Ave\/Doncaster Rd (Balwyn North)","OBJECTID":688},"id":"PTV_METRO_TRAM_STOP.fid--47d7f0d7_17965b514c2_-664d"},{"type":"Feature","geometry":{"type":"Point","coordinates":[145.080936,-37.79437203]},"properties":{"STOP_ID":"18567","ROUTES_USING_STOP":"48","LONGITUDE":145.080936,"TICKETZONE":"1","LATITUDE":-37.794372,"STOP_NAME":"50-Dight Ave\/Doncaster Rd (Balwyn North)","OBJECTID":687},"id":"PTV_METRO_TRAM_STOP.fid--47d7f0d7_17965b514c2_-664e"},{"type":"Feature","geometry":{"type":"Point","coordinates":[145.08118908,-37.79425899]},"properties":{"STOP_ID":"18363","ROUTES_USING_STOP":"48","LONGITUDE":145.081189,"TICKETZONE":"1","LATITUDE":-37.794259,"STOP_NAME":"50-Hill Rd\/Doncaster Rd (Balwyn North)","OBJECTID":202},"id":"PTV_METRO_TRAM_STOP.fid--47d7f0d7_17965b514c2_-664f"},{"type":"Feature","geometry":{"type":"Point","coordinates":[145.08463104,-37.79464797]},"properties":{"STOP_ID":"18566","ROUTES_USING_STOP":"48","LONGITUDE":145.084631,"TICKETZONE":"1","LATITUDE":-37.794648,"STOP_NAME":"51-Balwyn Rd\/Doncaster Rd (Balwyn North)","OBJECTID":686},"id":"PTV_METRO_TRAM_STOP.fid--47d7f0d7_17965b514c2_-6650"},{"type":"Feature","geometry":{"type":"Point","coordinates":[145.05763104,-37.82605401]},"properties":{"STOP_ID":"18967","ROUTES_USING_STOP":"72","LONGITUDE":145.057631,"TICKETZONE":"1","LATITUDE":-37.826054,"STOP_NAME":"64-Camberwell Station\/Burke Rd (Hawthorn East)","OBJECTID":60},"id":"PTV_METRO_TRAM_STOP.fid--47d7f0d7_17965b514c2_-6651"},{"type":"Feature","geometry":{"type":"Point","coordinates":[145.05743196,-37.82802402]},"properties":{"STOP_ID":"19043","ROUTES_USING_STOP":"72","LONGITUDE":145.057432,"TICKETZONE":"1","LATITUDE":-37.828024,"STOP_NAME":"63-Prospect Hill Rd\/Burke Rd (Camberwell)","OBJECTID":121},"id":"PTV_METRO_TRAM_STOP.fid--47d7f0d7_17965b514c2_-6652"},{"type":"Feature","geometry":{"type":"Point","coordinates":[145.05722208,-37.82821896]},"properties":{"STOP_ID":"18966","ROUTES_USING_STOP":"72","LONGITUDE":145.057222,"TICKETZONE":"1","LATITUDE":-37.828219,"STOP_NAME":"63-Prospect Hill Rd\/Burke Rd (Hawthorn East)","OBJECTID":59},"id":"PTV_METRO_TRAM_STOP.fid--47d7f0d7_17965b514c2_-6653"},{"type":"Feature","geometry":{"type":"Point","coordinates":[145.04350212,-37.82977596]},"properties":{"STOP_ID":"19446","ROUTES_USING_STOP":"75,70","LONGITUDE":145.043502,"TICKETZONE":"1","LATITUDE":-37.829776,"STOP_NAME":"36-Auburn Rd\/Riversdale Rd (Hawthorn East)","OBJECTID":1313},"id":"PTV_METRO_TRAM_STOP.fid--47d7f0d7_17965b514c2_-6654"},{"type":"Feature","geometry":{"type":"Point","coordinates":[145.04378112,-37.829943]},"properties":{"STOP_ID":"19756","ROUTES_USING_STOP":"75,70","LONGITUDE":145.043781,"TICKETZONE":"1","LATITUDE":-37.829943,"STOP_NAME":"36-Auburn Rd\/Riversdale Rd (Hawthorn East)","OBJECTID":854},"id":"PTV_METRO_TRAM_STOP.fid--47d7f0d7_17965b514c2_-6655"},{"type":"Feature","geometry":{"type":"Point","coordinates":[145.05681816,-37.830204]},"properties":{"STOP_ID":"18965","ROUTES_USING_STOP":"72","LONGITUDE":145.056818,"TICKETZONE":"1","LATITUDE":-37.830204,"STOP_NAME":"62-Camberwell Shopping Centre\/755 Burke Rd (Hawthorn East)","OBJECTID":58},"id":"PTV_METRO_TRAM_STOP.fid--47d7f0d7_17965b514c2_-6656"},{"type":"Feature","geometry":{"type":"Point","coordinates":[145.047636,-37.83025899]},"properties":{"STOP_ID":"19445","ROUTES_USING_STOP":"75,70","LONGITUDE":145.047636,"TICKETZONE":"1","LATITUDE":-37.830259,"STOP_NAME":"37-Tooronga Rd\/Riversdale Rd (Hawthorn East)","OBJECTID":1312},"id":"PTV_METRO_TRAM_STOP.fid--47d7f0d7_17965b514c2_-6657"},{"type":"Feature","geometry":{"type":"Point","coordinates":[145.04784912,-37.83038004]},"properties":{"STOP_ID":"19757","ROUTES_USING_STOP":"75,70","LONGITUDE":145.047849,"TICKETZONE":"1","LATITUDE":-37.83038,"STOP_NAME":"37-Tooronga Rd\/Riversdale Rd (Hawthorn East)","OBJECTID":855},"id":"PTV_METRO_TRAM_STOP.fid--47d7f0d7_17965b514c2_-6658"},{"type":"Feature","geometry":{"type":"Point","coordinates":[145.05134004,-37.83069]},"properties":{"STOP_ID":"19444","ROUTES_USING_STOP":"75,70","LONGITUDE":145.05134,"TICKETZONE":"1","LATITUDE":-37.83069,"STOP_NAME":"38-Hastings Rd\/Riversdale Rd (Hawthorn East)","OBJECTID":1311},"id":"PTV_METRO_TRAM_STOP.fid--47d7f0d7_17965b514c2_-6659"},{"type":"Feature","geometry":{"type":"Point","coordinates":[145.05162012,-37.83083904]},"properties":{"STOP_ID":"19758","ROUTES_USING_STOP":"75,70","LONGITUDE":145.05162,"TICKETZONE":"1","LATITUDE":-37.830839,"STOP_NAME":"38-Hastings Rd\/Riversdale Rd (Hawthorn East)","OBJECTID":856},"id":"PTV_METRO_TRAM_STOP.fid--47d7f0d7_17965b514c2_-665a"},{"type":"Feature","geometry":{"type":"Point","coordinates":[145.05430788,-37.83102804]},"properties":{"STOP_ID":"19443","ROUTES_USING_STOP":"75,70","LONGITUDE":145.054308,"TICKETZONE":"1","LATITUDE":-37.831028,"STOP_NAME":"39-Camberwell Tram Depot\/Riversdale Rd (Hawthorn East)","OBJECTID":1310},"id":"PTV_METRO_TRAM_STOP.fid--47d7f0d7_17965b514c2_-665b"},{"type":"Feature","geometry":{"type":"Point","coordinates":[145.05684012,-37.83108798]},"properties":{"STOP_ID":"19044","ROUTES_USING_STOP":"72","LONGITUDE":145.05684,"TICKETZONE":"1","LATITUDE":-37.831088,"STOP_NAME":"61-Camberwell Junction\/Burke Rd (Camberwell)","OBJECTID":122},"id":"PTV_METRO_TRAM_STOP.fid--47d7f0d7_17965b514c2_-665c"},{"type":"Feature","geometry":{"type":"Point","coordinates":[145.05479208,-37.83121596]},"properties":{"STOP_ID":"19759","ROUTES_USING_STOP":"75,70","LONGITUDE":145.054792,"TICKETZONE":"1","LATITUDE":-37.831216,"STOP_NAME":"39-Camberwell Tram Depot\/Riversdale Rd (Hawthorn East)","OBJECTID":857},"id":"PTV_METRO_TRAM_STOP.fid--47d7f0d7_17965b514c2_-665d"},{"type":"Feature","geometry":{"type":"Point","coordinates":[145.05642612,-37.83126996]},"properties":{"STOP_ID":"19442","ROUTES_USING_STOP":"75,70","LONGITUDE":145.056426,"TICKETZONE":"1","LATITUDE":-37.83127,"STOP_NAME":"40-Camberwell Junction\/Riversdale Rd (Hawthorn East)","OBJECTID":1309},"id":"PTV_METRO_TRAM_STOP.fid--47d7f0d7_17965b514c2_-665e"},{"type":"Feature","geometry":{"type":"Point","coordinates":[145.05762708,-37.83140703]},"properties":{"STOP_ID":"19441","ROUTES_USING_STOP":"70","LONGITUDE":145.057627,"TICKETZONE":"1","LATITUDE":-37.831407,"STOP_NAME":"41-Camberwell Market\/517 Riversdale Rd (Camberwell)","OBJECTID":1308},"id":"PTV_METRO_TRAM_STOP.fid--47d7f0d7_17965b514c2_-665f"},{"type":"Feature","geometry":{"type":"Point","coordinates":[145.05714792,-37.83148902]},"properties":{"STOP_ID":"19760","ROUTES_USING_STOP":"70","LONGITUDE":145.057148,"TICKETZONE":"1","LATITUDE":-37.831489,"STOP_NAME":"40-Camberwell Junction\/Riversdale Rd (Camberwell)","OBJECTID":858},"id":"PTV_METRO_TRAM_STOP.fid--47d7f0d7_17965b514c2_-6660"},{"type":"Feature","geometry":{"type":"Point","coordinates":[145.05656616,-37.83157002]},"properties":{"STOP_ID":"18964","ROUTES_USING_STOP":"72","LONGITUDE":145.056566,"TICKETZONE":"1","LATITUDE":-37.83157,"STOP_NAME":"61-Riversdale Rd\/Burke Rd (Hawthorn East)","OBJECTID":57},"id":"PTV_METRO_TRAM_STOP.fid--47d7f0d7_17965b514c2_-6661"},{"type":"Feature","geometry":{"type":"Point","coordinates":[145.05692904,-37.83159396]},"properties":{"STOP_ID":"21964","ROUTES_USING_STOP":"75","LONGITUDE":145.056929,"TICKETZONE":"1,2","LATITUDE":-37.831594,"STOP_NAME":"40-Camberwell Junction\/Camberwell Rd (Camberwell)","OBJECTID":1080},"id":"PTV_METRO_TRAM_STOP.fid--47d7f0d7_17965b514c2_-6662"},{"type":"Feature","geometry":{"type":"Point","coordinates":[145.06019892,-37.83168396]},"properties":{"STOP_ID":"19440","ROUTES_USING_STOP":"70","LONGITUDE":145.060199,"TICKETZONE":"1","LATITUDE":-37.831684,"STOP_NAME":"42-Fermanagh Rd\/Riversdale Rd (Camberwell)","OBJECTID":1307},"id":"PTV_METRO_TRAM_STOP.fid--47d7f0d7_17965b514c2_-6663"},{"type":"Feature","geometry":{"type":"Point","coordinates":[145.06018416,-37.83182796]},"properties":{"STOP_ID":"19761","ROUTES_USING_STOP":"70","LONGITUDE":145.060184,"TICKETZONE":"1","LATITUDE":-37.831828,"STOP_NAME":"42-Fermanagh Rd\/Riversdale Rd (Camberwell)","OBJECTID":859},"id":"PTV_METRO_TRAM_STOP.fid--47d7f0d7_17965b514c2_-6664"},{"type":"Feature","geometry":{"type":"Point","coordinates":[145.06350696,-37.83206196]},"properties":{"STOP_ID":"19439","ROUTES_USING_STOP":"70","LONGITUDE":145.063507,"TICKETZONE":"1","LATITUDE":-37.832062,"STOP_NAME":"43-Trafalgar Rd\/Riversdale Rd (Camberwell)","OBJECTID":1306},"id":"PTV_METRO_TRAM_STOP.fid--47d7f0d7_17965b514c2_-6665"},{"type":"Feature","geometry":{"type":"Point","coordinates":[145.05772284,-37.83208401]},"properties":{"STOP_ID":"21061","ROUTES_USING_STOP":"75","LONGITUDE":145.057723,"TICKETZONE":"1,2","LATITUDE":-37.832084,"STOP_NAME":"41-Burke Rd\/Camberwell Rd (Camberwell)","OBJECTID":1004},"id":"PTV_METRO_TRAM_STOP.fid--47d7f0d7_17965b514c2_-6666"},{"type":"Feature","geometry":{"type":"Point","coordinates":[145.06385508,-37.83224799]},"properties":{"STOP_ID":"19762","ROUTES_USING_STOP":"70","LONGITUDE":145.063855,"TICKETZONE":"1","LATITUDE":-37.832248,"STOP_NAME":"43-Trafalgar Rd\/Riversdale Rd (Camberwell)","OBJECTID":860},"id":"PTV_METRO_TRAM_STOP.fid--47d7f0d7_17965b514c2_-6667"},{"type":"Feature","geometry":{"type":"Point","coordinates":[145.06588584,-37.83233601]},"properties":{"STOP_ID":"19438","ROUTES_USING_STOP":"70","LONGITUDE":145.065886,"TICKETZONE":"1","LATITUDE":-37.832336,"STOP_NAME":"44-Derby St\/Riversdale Rd (Camberwell)","OBJECTID":1305},"id":"PTV_METRO_TRAM_STOP.fid--47d7f0d7_17965b514c2_-6668"},{"type":"Feature","geometry":{"type":"Point","coordinates":[145.06606404,-37.83248298]},"properties":{"STOP_ID":"19763","ROUTES_USING_STOP":"70","LONGITUDE":145.066064,"TICKETZONE":"1","LATITUDE":-37.832483,"STOP_NAME":"44-Derby St\/Riversdale Rd (Camberwell)","OBJECTID":861},"id":"PTV_METRO_TRAM_STOP.fid--47d7f0d7_17965b514c2_-6669"},{"type":"Feature","geometry":{"type":"Point","coordinates":[145.069308,-37.83269799]},"properties":{"STOP_ID":"19436","ROUTES_USING_STOP":"70","LONGITUDE":145.069308,"TICKETZONE":"1","LATITUDE":-37.832698,"STOP_NAME":"46-Spencer Rd\/Riversdale Rd (Canterbury)","OBJECTID":1304},"id":"PTV_METRO_TRAM_STOP.fid--47d7f0d7_17965b514c2_-666a"},{"type":"Feature","geometry":{"type":"Point","coordinates":[145.06986996,-37.83294198]},"properties":{"STOP_ID":"19764","ROUTES_USING_STOP":"70","LONGITUDE":145.06987,"TICKETZONE":"1","LATITUDE":-37.832942,"STOP_NAME":"46-Spencer Rd\/Riversdale Rd (Camberwell)","OBJECTID":862},"id":"PTV_METRO_TRAM_STOP.fid--47d7f0d7_17965b514c2_-666b"},{"type":"Feature","geometry":{"type":"Point","coordinates":[145.058868,-37.83304899]},"properties":{"STOP_ID":"21062","ROUTES_USING_STOP":"75","LONGITUDE":145.058868,"TICKETZONE":"1,2","LATITUDE":-37.833049,"STOP_NAME":"42-Camberwell Primary School\/Camberwell Rd (Camberwell)","OBJECTID":1005},"id":"PTV_METRO_TRAM_STOP.fid--47d7f0d7_17965b514c2_-666c"},{"type":"Feature","geometry":{"type":"Point","coordinates":[145.07239896,-37.83311001]},"properties":{"STOP_ID":"19435","ROUTES_USING_STOP":"70","LONGITUDE":145.072399,"TICKETZONE":"1","LATITUDE":-37.83311,"STOP_NAME":"47-Willow Gr\/Riversdale Rd (Canterbury)","OBJECTID":1303},"id":"PTV_METRO_TRAM_STOP.fid--47d7f0d7_17965b514c2_-666d"},{"type":"Feature","geometry":{"type":"Point","coordinates":[145.07266788,-37.83327597]},"properties":{"STOP_ID":"19765","ROUTES_USING_STOP":"70","LONGITUDE":145.072668,"TICKETZONE":"1","LATITUDE":-37.833276,"STOP_NAME":"47-Willow Gr\/Riversdale Rd (Camberwell)","OBJECTID":863},"id":"PTV_METRO_TRAM_STOP.fid--47d7f0d7_17965b514c2_-666e"},{"type":"Feature","geometry":{"type":"Point","coordinates":[145.05892884,-37.83333897]},"properties":{"STOP_ID":"21063","ROUTES_USING_STOP":"75","LONGITUDE":145.058929,"TICKETZONE":"1,2","LATITUDE":-37.833339,"STOP_NAME":"42-Camberwell Primary School\/Camberwell Rd (Camberwell)","OBJECTID":1006},"id":"PTV_METRO_TRAM_STOP.fid--47d7f0d7_17965b514c2_-666f"},{"type":"Feature","geometry":{"type":"Point","coordinates":[145.05615792,-37.83371697]},"properties":{"STOP_ID":"18963","ROUTES_USING_STOP":"72","LONGITUDE":145.056158,"TICKETZONE":"1","LATITUDE":-37.833717,"STOP_NAME":"60-Campbell Rd\/Burke Rd (Hawthorn East)","OBJECTID":56},"id":"PTV_METRO_TRAM_STOP.fid--47d7f0d7_17965b514c2_-6670"},{"type":"Feature","geometry":{"type":"Point","coordinates":[145.056312,-37.83389004]},"properties":{"STOP_ID":"19045","ROUTES_USING_STOP":"72","LONGITUDE":145.056312,"TICKETZONE":"1","LATITUDE":-37.83389,"STOP_NAME":"60-Reserve Rd\/Burke Rd (Camberwell)","OBJECTID":123},"id":"PTV_METRO_TRAM_STOP.fid--47d7f0d7_17965b514c2_-6671"},{"type":"Feature","geometry":{"type":"Point","coordinates":[145.06063488,-37.83456603]},"properties":{"STOP_ID":"21064","ROUTES_USING_STOP":"75","LONGITUDE":145.060635,"TICKETZONE":"1,2","LATITUDE":-37.834566,"STOP_NAME":"43-Camberwell Civic Centre\/Camberwell Rd (Camberwell)","OBJECTID":1007},"id":"PTV_METRO_TRAM_STOP.fid--47d7f0d7_17965b514c2_-6672"},{"type":"Feature","geometry":{"type":"Point","coordinates":[145.06066296,-37.83480903]},"properties":{"STOP_ID":"21065","ROUTES_USING_STOP":"75","LONGITUDE":145.060663,"TICKETZONE":"1,2","LATITUDE":-37.834809,"STOP_NAME":"43-Camberwell Civic Centre\/Camberwell Rd (Camberwell)","OBJECTID":1008},"id":"PTV_METRO_TRAM_STOP.fid--47d7f0d7_17965b514c2_-6673"},{"type":"Feature","geometry":{"type":"Point","coordinates":[145.05607404,-37.83519297]},"properties":{"STOP_ID":"19046","ROUTES_USING_STOP":"72","LONGITUDE":145.056074,"TICKETZONE":"1","LATITUDE":-37.835193,"STOP_NAME":"59-Seymour Gr\/Burke Rd (Camberwell)","OBJECTID":124},"id":"PTV_METRO_TRAM_STOP.fid--47d7f0d7_17965b514c2_-6674"},{"type":"Feature","geometry":{"type":"Point","coordinates":[145.05582888,-37.835415]},"properties":{"STOP_ID":"18962","ROUTES_USING_STOP":"72","LONGITUDE":145.055829,"TICKETZONE":"1","LATITUDE":-37.835415,"STOP_NAME":"59-Pleasant Rd\/Burke Rd (Hawthorn East)","OBJECTID":55},"id":"PTV_METRO_TRAM_STOP.fid--47d7f0d7_17965b514c2_-6675"},{"type":"Feature","geometry":{"type":"Point","coordinates":[145.06215588,-37.83592404]},"properties":{"STOP_ID":"21066","ROUTES_USING_STOP":"75","LONGITUDE":145.062156,"TICKETZONE":"1,2","LATITUDE":-37.835924,"STOP_NAME":"44-Trafalgar Rd\/Camberwell Rd (Camberwell)","OBJECTID":1009},"id":"PTV_METRO_TRAM_STOP.fid--47d7f0d7_17965b514c2_-6676"},{"type":"Feature","geometry":{"type":"Point","coordinates":[145.06251804,-37.83641697]},"properties":{"STOP_ID":"21067","ROUTES_USING_STOP":"75","LONGITUDE":145.062518,"TICKETZONE":"1,2","LATITUDE":-37.836417,"STOP_NAME":"44-Trafalgar Rd\/Camberwell Rd (Camberwell)","OBJECTID":1010},"id":"PTV_METRO_TRAM_STOP.fid--47d7f0d7_17965b514c2_-6677"},{"type":"Feature","geometry":{"type":"Point","coordinates":[145.06419996,-37.83770604]},"properties":{"STOP_ID":"21068","ROUTES_USING_STOP":"75","LONGITUDE":145.0642,"TICKETZONE":"1,2","LATITUDE":-37.837706,"STOP_NAME":"45-Bowen St\/Camberwell Rd (Camberwell)","OBJECTID":1011},"id":"PTV_METRO_TRAM_STOP.fid--47d7f0d7_17965b514c2_-6678"},{"type":"Feature","geometry":{"type":"Point","coordinates":[145.06419492,-37.83791304]},"properties":{"STOP_ID":"21069","ROUTES_USING_STOP":"75","LONGITUDE":145.064195,"TICKETZONE":"1,2","LATITUDE":-37.837913,"STOP_NAME":"45-Bowen St\/Camberwell Rd (Camberwell)","OBJECTID":1012},"id":"PTV_METRO_TRAM_STOP.fid--47d7f0d7_17965b514c2_-6679"},{"type":"Feature","geometry":{"type":"Point","coordinates":[145.05552,-37.83808602]},"properties":{"STOP_ID":"19047","ROUTES_USING_STOP":"72","LONGITUDE":145.05552,"TICKETZONE":"1","LATITUDE":-37.838086,"STOP_NAME":"58-Currajong Ave\/Burke Rd (Camberwell)","OBJECTID":125},"id":"PTV_METRO_TRAM_STOP.fid--47d7f0d7_17965b514c2_-667a"},{"type":"Feature","geometry":{"type":"Point","coordinates":[145.05533604,-37.83816396]},"properties":{"STOP_ID":"18961","ROUTES_USING_STOP":"72","LONGITUDE":145.055336,"TICKETZONE":"1","LATITUDE":-37.838164,"STOP_NAME":"58-Leura Gr\/Burke Rd (Hawthorn East)","OBJECTID":54},"id":"PTV_METRO_TRAM_STOP.fid--47d7f0d7_17965b514c2_-667b"},{"type":"Feature","geometry":{"type":"Point","coordinates":[145.06607592,-37.83940398]},"properties":{"STOP_ID":"21070","ROUTES_USING_STOP":"75","LONGITUDE":145.066076,"TICKETZONE":"1,2","LATITUDE":-37.839404,"STOP_NAME":"46-Christowel St\/Camberwell Rd (Camberwell)","OBJECTID":1013},"id":"PTV_METRO_TRAM_STOP.fid--47d7f0d7_17965b514c2_-667c"},{"type":"Feature","geometry":{"type":"Point","coordinates":[145.06630416,-37.83981402]},"properties":{"STOP_ID":"21071","ROUTES_USING_STOP":"75","LONGITUDE":145.066304,"TICKETZONE":"1,2","LATITUDE":-37.839814,"STOP_NAME":"46-Acheron Ave\/Camberwell Rd (Camberwell)","OBJECTID":1014},"id":"PTV_METRO_TRAM_STOP.fid--47d7f0d7_17965b514c2_-667d"},{"type":"Feature","geometry":{"type":"Point","coordinates":[145.05513912,-37.84006197]},"properties":{"STOP_ID":"19048","ROUTES_USING_STOP":"72","LONGITUDE":145.055139,"TICKETZONE":"1","LATITUDE":-37.840062,"STOP_NAME":"57-Pine Ave\/Burke Rd (Camberwell)","OBJECTID":126},"id":"PTV_METRO_TRAM_STOP.fid--47d7f0d7_17965b514c2_-667e"},{"type":"Feature","geometry":{"type":"Point","coordinates":[145.05494112,-37.840257]},"properties":{"STOP_ID":"18960","ROUTES_USING_STOP":"72","LONGITUDE":145.054941,"TICKETZONE":"1","LATITUDE":-37.840257,"STOP_NAME":"57-Pine Ave\/Burke Rd (Hawthorn East)","OBJECTID":53},"id":"PTV_METRO_TRAM_STOP.fid--47d7f0d7_17965b514c2_-667f"},{"type":"Feature","geometry":{"type":"Point","coordinates":[145.06764192,-37.84080897]},"properties":{"STOP_ID":"21072","ROUTES_USING_STOP":"75","LONGITUDE":145.067642,"TICKETZONE":"1,2","LATITUDE":-37.840809,"STOP_NAME":"47-Maple Cres\/Camberwell Rd (Camberwell)","OBJECTID":1015},"id":"PTV_METRO_TRAM_STOP.fid--47d7f0d7_17965b514c2_-6680"},{"type":"Feature","geometry":{"type":"Point","coordinates":[145.06781508,-37.84115403]},"properties":{"STOP_ID":"21073","ROUTES_USING_STOP":"75","LONGITUDE":145.067815,"TICKETZONE":"1,2","LATITUDE":-37.841154,"STOP_NAME":"47-Orange Gr\/Camberwell Rd (Camberwell)","OBJECTID":1016},"id":"PTV_METRO_TRAM_STOP.fid--47d7f0d7_17965b514c2_-6681"},{"type":"Feature","geometry":{"type":"Point","coordinates":[145.02958416,-37.85407398]},"properties":{"STOP_ID":"20536","ROUTES_USING_STOP":"16","LONGITUDE":145.029584,"TICKETZONE":"1","LATITUDE":-37.854074,"STOP_NAME":"58-Bell St\/Glenferrie Rd (Malvern)","OBJECTID":928},"id":"PTV_METRO_TRAM_STOP.fid--47d7f0d7_17965b514c2_-6682"},{"type":"Feature","geometry":{"type":"Point","coordinates":[145.02977712,-37.85409504]},"properties":{"STOP_ID":"20537","ROUTES_USING_STOP":"16","LONGITUDE":145.029777,"TICKETZONE":"1","LATITUDE":-37.854095,"STOP_NAME":"58-Sorrett Ave\/Glenferrie Rd (Malvern)","OBJECTID":929},"id":"PTV_METRO_TRAM_STOP.fid--47d7f0d7_17965b514c2_-6683"},{"type":"Feature","geometry":{"type":"Point","coordinates":[145.03579992,-37.85755797]},"properties":{"STOP_ID":"16765","ROUTES_USING_STOP":"6","LONGITUDE":145.0358,"TICKETZONE":"1","LATITUDE":-37.857558,"STOP_NAME":"46-Fraser St\/High St (Malvern)","OBJECTID":384},"id":"PTV_METRO_TRAM_STOP.fid--47d7f0d7_17965b514c2_-6684"},{"type":"Feature","geometry":{"type":"Point","coordinates":[145.03561092,-37.85738301]},"properties":{"STOP_ID":"16749","ROUTES_USING_STOP":"6","LONGITUDE":145.035611,"TICKETZONE":"1","LATITUDE":-37.857383,"STOP_NAME":"46-Fraser St\/High St (Malvern)","OBJECTID":370},"id":"PTV_METRO_TRAM_STOP.fid--47d7f0d7_17965b514c2_-6685"},{"type":"Feature","geometry":{"type":"Point","coordinates":[145.04337504,-37.86422598]},"properties":{"STOP_ID":"1185","ROUTES_USING_STOP":"5","LONGITUDE":145.043375,"TICKETZONE":"1","LATITUDE":-37.864226,"STOP_NAME":"50-Vincent St\/Wattletree Rd (Malvern East)","OBJECTID":322},"id":"PTV_METRO_TRAM_STOP.fid--47d7f0d7_17965b514c2_-6686"},{"type":"Feature","geometry":{"type":"Point","coordinates":[145.043712,-37.86438501]},"properties":{"STOP_ID":"1789","ROUTES_USING_STOP":"5","LONGITUDE":145.043712,"TICKETZONE":"1","LATITUDE":-37.864385,"STOP_NAME":"50-Anderson St\/Wattletree Rd (Malvern East)","OBJECTID":471},"id":"PTV_METRO_TRAM_STOP.fid--47d7f0d7_17965b514c2_-6687"},{"type":"Feature","geometry":{"type":"Point","coordinates":[145.02993912,-37.85183604]},"properties":{"STOP_ID":"20538","ROUTES_USING_STOP":"16","LONGITUDE":145.029939,"TICKETZONE":"1","LATITUDE":-37.851836,"STOP_NAME":"59-Malvern Rd\/Glenferrie Rd (Malvern)","OBJECTID":930},"id":"PTV_METRO_TRAM_STOP.fid--47d7f0d7_17965b514c2_-6688"},{"type":"Feature","geometry":{"type":"Point","coordinates":[145.02986712,-37.85154696]},"properties":{"STOP_ID":"18946","ROUTES_USING_STOP":"72","LONGITUDE":145.029867,"TICKETZONE":"1","LATITUDE":-37.851547,"STOP_NAME":"43-Glenferrie Rd\/Malvern Rd (Toorak)","OBJECTID":39},"id":"PTV_METRO_TRAM_STOP.fid--47d7f0d7_17965b514c2_-6689"},{"type":"Feature","geometry":{"type":"Point","coordinates":[145.03020408,-37.851723]},"properties":{"STOP_ID":"19063","ROUTES_USING_STOP":"72","LONGITUDE":145.030204,"TICKETZONE":"1","LATITUDE":-37.851723,"STOP_NAME":"43-Glenferrie Rd\/Malvern Rd (Malvern)","OBJECTID":140},"id":"PTV_METRO_TRAM_STOP.fid--47d7f0d7_17965b514c2_-668a"},{"type":"Feature","geometry":{"type":"Point","coordinates":[145.03018608,-37.851525]},"properties":{"STOP_ID":"20539","ROUTES_USING_STOP":"16","LONGITUDE":145.030186,"TICKETZONE":"1","LATITUDE":-37.851525,"STOP_NAME":"59-Malvern Rd\/Glenferrie Rd (Malvern)","OBJECTID":931},"id":"PTV_METRO_TRAM_STOP.fid--47d7f0d7_17965b514c2_-668b"},{"type":"Feature","geometry":{"type":"Point","coordinates":[145.03800888,-37.85781996]},"properties":{"STOP_ID":"16764","ROUTES_USING_STOP":"6","LONGITUDE":145.038009,"TICKETZONE":"1","LATITUDE":-37.85782,"STOP_NAME":"47-Dixon St\/High St (Malvern)","OBJECTID":383},"id":"PTV_METRO_TRAM_STOP.fid--47d7f0d7_17965b514c2_-668c"},{"type":"Feature","geometry":{"type":"Point","coordinates":[145.03801284,-37.85769396]},"properties":{"STOP_ID":"16750","ROUTES_USING_STOP":"6","LONGITUDE":145.038013,"TICKETZONE":"1","LATITUDE":-37.857694,"STOP_NAME":"47-Dixon St\/High St (Malvern)","OBJECTID":371},"id":"PTV_METRO_TRAM_STOP.fid--47d7f0d7_17965b514c2_-668d"},{"type":"Feature","geometry":{"type":"Point","coordinates":[145.04657112,-37.86461298]},"properties":{"STOP_ID":"1291","ROUTES_USING_STOP":"5","LONGITUDE":145.046571,"TICKETZONE":"1","LATITUDE":-37.864613,"STOP_NAME":"51-Erica Ave\/Wattletree Rd (Malvern East)","OBJECTID":324},"id":"PTV_METRO_TRAM_STOP.fid--47d7f0d7_17965b514c2_-668e"},{"type":"Feature","geometry":{"type":"Point","coordinates":[145.03249512,-37.85189697]},"properties":{"STOP_ID":"18947","ROUTES_USING_STOP":"72","LONGITUDE":145.032495,"TICKETZONE":"1","LATITUDE":-37.851897,"STOP_NAME":"44-Plant St\/Malvern Rd (Malvern)","OBJECTID":40},"id":"PTV_METRO_TRAM_STOP.fid--47d7f0d7_17965b514c2_-668f"},{"type":"Feature","geometry":{"type":"Point","coordinates":[145.04699808,-37.864782]},"properties":{"STOP_ID":"1696","ROUTES_USING_STOP":"5","LONGITUDE":145.046998,"TICKETZONE":"1","LATITUDE":-37.864782,"STOP_NAME":"51-Nott St\/Wattletree Rd (Malvern East)","OBJECTID":398},"id":"PTV_METRO_TRAM_STOP.fid--47d7f0d7_17965b514c2_-6690"},{"type":"Feature","geometry":{"type":"Point","coordinates":[145.03288788,-37.85208399]},"properties":{"STOP_ID":"19062","ROUTES_USING_STOP":"72","LONGITUDE":145.032888,"TICKETZONE":"1","LATITUDE":-37.852084,"STOP_NAME":"44-Plant St\/Malvern Rd (Malvern)","OBJECTID":139},"id":"PTV_METRO_TRAM_STOP.fid--47d7f0d7_17965b514c2_-6691"},{"type":"Feature","geometry":{"type":"Point","coordinates":[145.03036104,-37.849662]},"properties":{"STOP_ID":"20540","ROUTES_USING_STOP":"16","LONGITUDE":145.030361,"TICKETZONE":"1","LATITUDE":-37.849662,"STOP_NAME":"60-Stonnington Pl\/Glenferrie Rd (Malvern)","OBJECTID":932},"id":"PTV_METRO_TRAM_STOP.fid--47d7f0d7_17965b514c2_-6692"},{"type":"Feature","geometry":{"type":"Point","coordinates":[145.03050792,-37.84967397]},"properties":{"STOP_ID":"20541","ROUTES_USING_STOP":"16","LONGITUDE":145.030508,"TICKETZONE":"1","LATITUDE":-37.849674,"STOP_NAME":"60-Stonnington Pl\/Glenferrie Rd (Malvern)","OBJECTID":933},"id":"PTV_METRO_TRAM_STOP.fid--47d7f0d7_17965b514c2_-6693"},{"type":"Feature","geometry":{"type":"Point","coordinates":[145.04104908,-37.85807799]},"properties":{"STOP_ID":"16751","ROUTES_USING_STOP":"6","LONGITUDE":145.041049,"TICKETZONE":"1","LATITUDE":-37.858078,"STOP_NAME":"48-Tooronga Rd\/High St (Glen Iris)","OBJECTID":372},"id":"PTV_METRO_TRAM_STOP.fid--47d7f0d7_17965b514c2_-6694"},{"type":"Feature","geometry":{"type":"Point","coordinates":[145.04136192,-37.85827203]},"properties":{"STOP_ID":"16762","ROUTES_USING_STOP":"6","LONGITUDE":145.041362,"TICKETZONE":"1","LATITUDE":-37.858272,"STOP_NAME":"48-Tooronga Rd\/High St (Glen Iris)","OBJECTID":382},"id":"PTV_METRO_TRAM_STOP.fid--47d7f0d7_17965b514c2_-6695"},{"type":"Feature","geometry":{"type":"Point","coordinates":[145.03530384,-37.85225904]},"properties":{"STOP_ID":"18948","ROUTES_USING_STOP":"72","LONGITUDE":145.035304,"TICKETZONE":"1","LATITUDE":-37.852259,"STOP_NAME":"45-Elizabeth St\/Malvern Rd (Malvern)","OBJECTID":41},"id":"PTV_METRO_TRAM_STOP.fid--47d7f0d7_17965b514c2_-6696"},{"type":"Feature","geometry":{"type":"Point","coordinates":[145.035504,-37.852434]},"properties":{"STOP_ID":"19061","ROUTES_USING_STOP":"72","LONGITUDE":145.035504,"TICKETZONE":"1","LATITUDE":-37.852434,"STOP_NAME":"45-Elizabeth St\/Malvern Rd (Malvern)","OBJECTID":138},"id":"PTV_METRO_TRAM_STOP.fid--47d7f0d7_17965b514c2_-6697"},{"type":"Feature","geometry":{"type":"Point","coordinates":[145.05007104,-37.86507603]},"properties":{"STOP_ID":"1575","ROUTES_USING_STOP":"5","LONGITUDE":145.050071,"TICKETZONE":"1","LATITUDE":-37.865076,"STOP_NAME":"52-Burke Rd\/Wattletree Rd (Malvern East)","OBJECTID":333},"id":"PTV_METRO_TRAM_STOP.fid--47d7f0d7_17965b514c2_-6698"},{"type":"Feature","geometry":{"type":"Point","coordinates":[145.030878,-37.84773402]},"properties":{"STOP_ID":"20543","ROUTES_USING_STOP":"16","LONGITUDE":145.030878,"TICKETZONE":"1","LATITUDE":-37.847734,"STOP_NAME":"61-Moorakyne Ave\/Glenferrie Rd (Malvern)","OBJECTID":935},"id":"PTV_METRO_TRAM_STOP.fid--47d7f0d7_17965b514c2_-6699"},{"type":"Feature","geometry":{"type":"Point","coordinates":[145.044198,-37.85845401]},"properties":{"STOP_ID":"16752","ROUTES_USING_STOP":"6","LONGITUDE":145.044198,"TICKETZONE":"1","LATITUDE":-37.858454,"STOP_NAME":"49-Harold Holt Swim Centre\/High St (Glen Iris)","OBJECTID":373},"id":"PTV_METRO_TRAM_STOP.fid--47d7f0d7_17965b514c2_-669a"},{"type":"Feature","geometry":{"type":"Point","coordinates":[145.04470416,-37.85867001]},"properties":{"STOP_ID":"16761","ROUTES_USING_STOP":"6","LONGITUDE":145.044704,"TICKETZONE":"1","LATITUDE":-37.85867,"STOP_NAME":"49-Harold Holt Swim Centre\/High St (Glen Iris)","OBJECTID":381},"id":"PTV_METRO_TRAM_STOP.fid--47d7f0d7_17965b514c2_-669b"},{"type":"Feature","geometry":{"type":"Point","coordinates":[145.03882284,-37.85285898]},"properties":{"STOP_ID":"19060","ROUTES_USING_STOP":"72","LONGITUDE":145.038823,"TICKETZONE":"1","LATITUDE":-37.852859,"STOP_NAME":"46-Shaftesbury Ave\/Malvern Rd (Malvern)","OBJECTID":137},"id":"PTV_METRO_TRAM_STOP.fid--47d7f0d7_17965b514c2_-669c"},{"type":"Feature","geometry":{"type":"Point","coordinates":[145.03923396,-37.85278401]},"properties":{"STOP_ID":"18949","ROUTES_USING_STOP":"72","LONGITUDE":145.039234,"TICKETZONE":"1","LATITUDE":-37.852784,"STOP_NAME":"46-Meredith St\/Malvern Rd (Malvern)","OBJECTID":42},"id":"PTV_METRO_TRAM_STOP.fid--47d7f0d7_17965b514c2_-669d"},{"type":"Feature","geometry":{"type":"Point","coordinates":[145.04840892,-37.85911002]},"properties":{"STOP_ID":"16760","ROUTES_USING_STOP":"6","LONGITUDE":145.048409,"TICKETZONE":"1","LATITUDE":-37.85911,"STOP_NAME":"50-Belmont Ave\/High St (Glen Iris)","OBJECTID":380},"id":"PTV_METRO_TRAM_STOP.fid--47d7f0d7_17965b514c2_-669e"},{"type":"Feature","geometry":{"type":"Point","coordinates":[145.04825484,-37.85894496]},"properties":{"STOP_ID":"16753","ROUTES_USING_STOP":"6","LONGITUDE":145.048255,"TICKETZONE":"1","LATITUDE":-37.858945,"STOP_NAME":"50-Belmont Ave\/High St (Glen Iris)","OBJECTID":374},"id":"PTV_METRO_TRAM_STOP.fid--47d7f0d7_17965b514c2_-669f"},{"type":"Feature","geometry":{"type":"Point","coordinates":[145.04198688,-37.85312799]},"properties":{"STOP_ID":"18950","ROUTES_USING_STOP":"72","LONGITUDE":145.041987,"TICKETZONE":"1","LATITUDE":-37.853128,"STOP_NAME":"47-Tooronga Rd\/Malvern Rd (Malvern)","OBJECTID":43},"id":"PTV_METRO_TRAM_STOP.fid--47d7f0d7_17965b514c2_-66a0"},{"type":"Feature","geometry":{"type":"Point","coordinates":[145.04230008,-37.85330403]},"properties":{"STOP_ID":"19059","ROUTES_USING_STOP":"72","LONGITUDE":145.0423,"TICKETZONE":"1","LATITUDE":-37.853304,"STOP_NAME":"47-Tooronga Rd\/Malvern Rd (Glen Iris)","OBJECTID":136},"id":"PTV_METRO_TRAM_STOP.fid--47d7f0d7_17965b514c2_-66a1"},{"type":"Feature","geometry":{"type":"Point","coordinates":[145.05121188,-37.85931]},"properties":{"STOP_ID":"16754","ROUTES_USING_STOP":"6","LONGITUDE":145.051212,"TICKETZONE":"1","LATITUDE":-37.85931,"STOP_NAME":"51-Burke Rd\/High St (Glen Iris)","OBJECTID":375},"id":"PTV_METRO_TRAM_STOP.fid--47d7f0d7_17965b514c2_-66a2"},{"type":"Feature","geometry":{"type":"Point","coordinates":[145.05150312,-37.85948604]},"properties":{"STOP_ID":"16759","ROUTES_USING_STOP":"6","LONGITUDE":145.051503,"TICKETZONE":"1","LATITUDE":-37.859486,"STOP_NAME":"51-Burke Rd\/High St (Glen Iris)","OBJECTID":379},"id":"PTV_METRO_TRAM_STOP.fid--47d7f0d7_17965b514c2_-66a3"},{"type":"Feature","geometry":{"type":"Point","coordinates":[145.04555484,-37.85355603]},"properties":{"STOP_ID":"18951","ROUTES_USING_STOP":"72","LONGITUDE":145.045555,"TICKETZONE":"1","LATITUDE":-37.853556,"STOP_NAME":"48-Edgar St\/Malvern Rd (Malvern)","OBJECTID":44},"id":"PTV_METRO_TRAM_STOP.fid--47d7f0d7_17965b514c2_-66a4"},{"type":"Feature","geometry":{"type":"Point","coordinates":[145.04583492,-37.85373198]},"properties":{"STOP_ID":"19058","ROUTES_USING_STOP":"72","LONGITUDE":145.045835,"TICKETZONE":"1","LATITUDE":-37.853732,"STOP_NAME":"48-Edgar St\/Malvern Rd (Glen Iris)","OBJECTID":135},"id":"PTV_METRO_TRAM_STOP.fid--47d7f0d7_17965b514c2_-66a5"},{"type":"Feature","geometry":{"type":"Point","coordinates":[145.05379488,-37.85961402]},"properties":{"STOP_ID":"16755","ROUTES_USING_STOP":"6","LONGITUDE":145.053795,"TICKETZONE":"1","LATITUDE":-37.859614,"STOP_NAME":"52-Boyanda Rd\/High St (Glen Iris)","OBJECTID":376},"id":"PTV_METRO_TRAM_STOP.fid--47d7f0d7_17965b514c2_-66a6"},{"type":"Feature","geometry":{"type":"Point","coordinates":[145.05418908,-37.85978196]},"properties":{"STOP_ID":"16758","ROUTES_USING_STOP":"6","LONGITUDE":145.054189,"TICKETZONE":"1","LATITUDE":-37.859782,"STOP_NAME":"52-Boyanda Rd\/High St (Glen Iris)","OBJECTID":378},"id":"PTV_METRO_TRAM_STOP.fid--47d7f0d7_17965b514c2_-66a7"},{"type":"Feature","geometry":{"type":"Point","coordinates":[145.04841792,-37.85404599]},"properties":{"STOP_ID":"19057","ROUTES_USING_STOP":"72","LONGITUDE":145.048418,"TICKETZONE":"1","LATITUDE":-37.854046,"STOP_NAME":"49-Belmont Ave\/Malvern Rd (Glen Iris)","OBJECTID":134},"id":"PTV_METRO_TRAM_STOP.fid--47d7f0d7_17965b514c2_-66a8"},{"type":"Feature","geometry":{"type":"Point","coordinates":[145.04832,-37.85390001]},"properties":{"STOP_ID":"18952","ROUTES_USING_STOP":"72","LONGITUDE":145.04832,"TICKETZONE":"1","LATITUDE":-37.8539,"STOP_NAME":"49-Kenilworth Gr\/Malvern Rd (Malvern)","OBJECTID":45},"id":"PTV_METRO_TRAM_STOP.fid--47d7f0d7_17965b514c2_-66a9"},{"type":"Feature","geometry":{"type":"Point","coordinates":[145.05633108,-37.85999796]},"properties":{"STOP_ID":"16757","ROUTES_USING_STOP":"6","LONGITUDE":145.056331,"TICKETZONE":"1","LATITUDE":-37.859998,"STOP_NAME":"53-Malvern Rd\/High St (Glen Iris)","OBJECTID":377},"id":"PTV_METRO_TRAM_STOP.fid--47d7f0d7_17965b514c2_-66aa"},{"type":"Feature","geometry":{"type":"Point","coordinates":[145.05129504,-37.85441796]},"properties":{"STOP_ID":"19056","ROUTES_USING_STOP":"72","LONGITUDE":145.051295,"TICKETZONE":"1","LATITUDE":-37.854418,"STOP_NAME":"50-Glenarm Rd\/Malvern Rd (Glen Iris)","OBJECTID":133},"id":"PTV_METRO_TRAM_STOP.fid--47d7f0d7_17965b514c2_-66ab"},{"type":"Feature","geometry":{"type":"Point","coordinates":[145.05149088,-37.85432202]},"properties":{"STOP_ID":"18953","ROUTES_USING_STOP":"72","LONGITUDE":145.051491,"TICKETZONE":"1","LATITUDE":-37.854322,"STOP_NAME":"50-Burke Rd\/Malvern Rd (Malvern)","OBJECTID":46},"id":"PTV_METRO_TRAM_STOP.fid--47d7f0d7_17965b514c2_-66ac"},{"type":"Feature","geometry":{"type":"Point","coordinates":[145.05266304,-37.85296203]},"properties":{"STOP_ID":"19054","ROUTES_USING_STOP":"72","LONGITUDE":145.052663,"TICKETZONE":"1","LATITUDE":-37.852962,"STOP_NAME":"51-Gardiner Station\/Burke Rd (Glen Iris)","OBJECTID":132},"id":"PTV_METRO_TRAM_STOP.fid--47d7f0d7_17965b514c2_-66ad"},{"type":"Feature","geometry":{"type":"Point","coordinates":[145.05267708,-37.85285403]},"properties":{"STOP_ID":"18954","ROUTES_USING_STOP":"72","LONGITUDE":145.052677,"TICKETZONE":"1","LATITUDE":-37.852854,"STOP_NAME":"51-Gardiner Railway Station\/Burke Rd (Hawthorn East)","OBJECTID":47},"id":"PTV_METRO_TRAM_STOP.fid--47d7f0d7_17965b514c2_-66ae"},{"type":"Feature","geometry":{"type":"Point","coordinates":[145.05304212,-37.84977801]},"properties":{"STOP_ID":"18955","ROUTES_USING_STOP":"72","LONGITUDE":145.053042,"TICKETZONE":"1","LATITUDE":-37.849778,"STOP_NAME":"52-Harris Ave\/Burke Rd (Hawthorn East)","OBJECTID":48},"id":"PTV_METRO_TRAM_STOP.fid--47d7f0d7_17965b514c2_-66af"},{"type":"Feature","geometry":{"type":"Point","coordinates":[145.05322212,-37.84988097]},"properties":{"STOP_ID":"19053","ROUTES_USING_STOP":"72","LONGITUDE":145.053222,"TICKETZONE":"1","LATITUDE":-37.849881,"STOP_NAME":"52-Bickleigh St\/Burke Rd (Glen Iris)","OBJECTID":131},"id":"PTV_METRO_TRAM_STOP.fid--47d7f0d7_17965b514c2_-66b0"},{"type":"Feature","geometry":{"type":"Point","coordinates":[145.05339204,-37.84817097]},"properties":{"STOP_ID":"18956","ROUTES_USING_STOP":"72","LONGITUDE":145.053392,"TICKETZONE":"1","LATITUDE":-37.848171,"STOP_NAME":"53-Faircroft Ave\/Burke Rd (Hawthorn East)","OBJECTID":49},"id":"PTV_METRO_TRAM_STOP.fid--47d7f0d7_17965b514c2_-66b1"},{"type":"Feature","geometry":{"type":"Point","coordinates":[145.05362712,-37.84787802]},